"CWNS_ID","FACILITY_ID","LOCATION_TYPE","LATITUDE","LONGITUDE","DATUM","ADDRESS","ADDRESS_2","CITY","STATE_CODE","ZIP_CODE","COUNTY_FIPS","COUNTY_NAME"
"17001501001",1114095,Point,"38.8317",-88.7729,NAD83,ROUTE 37 SOUTH,,Farina,IL,"62838",,
"17006911001",1114288,Point,"41.114602",-90.163250,NAD83,,VILLAGE HALL,Altona,IL,"61414",,
"17007200001",1114306,Point,"38.5435",-89.6102,NAD83,"310 EAST RAILROAD STREET",,Albers,IL,"62215",,
"17007712001",1114375,Point,"42.38467",-89.51518,NAD83,"5718 NORTH FAWVER ROAD",,Dakota,IL,"61018",,
"17007813001",1114383,Point,"40.8653",-90.7541,NAD83,,P.O. BOX 399,Kirkwood,IL,"61447",,
"18000328001",1120166,Point,"39.4289",-87.4319,NAD83,"3200 S SR 63",,Terre Haute,IN,"47802",,
"18002110001",1120270,Point,"41.5855",-86.6803,NAD83,"2101 BOYD BLVD",,La Porte,IN,"46350-6745",,
"18004874001",1120435,Point,"41.6513",-85.4133,NAD83,"402 NURSERY ST",,Lagrange,IN,"46761",,
"19000050001",1123497,Point,"42.6094",-91.7372,NAD83,UNKNOWN,"0.5 MI W SLATER AVE. 0.4 OF A MILE S OF ALICE ST.",Aurora,IA,"50607",,
"19000259001",1123676,Point,"41.1392",-92.6175,NAD83,US HWY 63 & 182ND ST,,Eddyville,IA,"52553",,
"19000403001",1123797,Point,"42.3469",-95.4828,NAD83,"1201 1ST STREET",,Ida Grove,IA,"51445",,
"19000432001",1123826,Point,"41.467",-92.2391,NAD83,"13098 190TH AVE",,Keswick,IA,"50136",,
"19000511001",1123900,Point,"41.7498",-90.4432,NAD83,"CITY CLERK, CITY HALL",,Mc Causland,IA,"52758",,
"19000886001",1124226,Point,"41.8728",-91.8406,NAD83,"120 5TH STREET N",,Walford,IA,"52351",,
"16000078001",1128628,Point,"46.8556",-116.3981,NAD83,CORNER OF HIGHWAY 3 AND HIGHWAY 8,BOVILL WWTP,Bovill,ID,"83806",,
"16000153001",1128681,Point,"43.3088",-112.1921,NAD83,"490 ROOSEVELT",FIRTH WWTP,Firth,ID,"83236",,
"16000185001",1128709,Point,"47.7694",-116.8308,NAD83,"10789 NORTH ATLAS ROAD",HARSB WWTP,Hayden,ID,"83835",,
"16000219001",1128740,Point,"46.5009",-116.3198,NAD83,HIGHWAY 7 (NEZ PERCE RESERVATION),WASTEWATER TREATMENT FACILITY (WWTF),Ahsahka,ID,"83520",,
"20000503001",1130327,Point,"38.1264",-97.7708,NAD83,UNKNOWN,,Buhler,KS,"67522",,
"20001315001",1130584,Point,"38.1262",-99.7050,NAD83,,TWNSH 22S RANGE 22W,Hanston,KS,"67849",,
"20006846001",1130691,Point,"39.7873",-95.076,NAD83,RAYMOND WHITTAKER,,Troy,KS,"66087",,
"29001009001",1133239,Point,"38.5847",-92.1691,NAD83,"401 Mokane Road",,Jefferson City,MO,"65101",,
"29001015001",1133262,Point,"39.106",-93.158306,NAD83,"2232 Watermill Road",,Marshall,MO,"65340",,
"29001022001",1133274,Point,"39.730774",-94.869801,NAD83,"3500 HIGHWAY 759",,Saint Joseph,MO,"64504-1014",,
"29001066001",1133347,Point,"38.869835",-92.899747,NAD83,"213 College Street",,Pilot Grove,MO,"65276",,
"29001237010",1133578,Point,"38.865271",-92.435786,NAD83,,,Columbia,MO,"65203",,
"29001237034",1133600,Point,"39.123421",-92.237,NAD83,SE OF RT U AND RICKETTS RD,,Hallsville,MO,"65255",,
"29002011001",1133629,Point,"40.5006",-95.0366,NAD83,,,Clearmont,MO,"64431",,
"29002480001",1133862,Point,"39.05958",-93.81467,NAD83,"15251 LONG ST",,Mayview,MO,"64071",,
"29003353001",1133948,Point,"38.761446",-92.475783,NAD83,"0.25 miles south of Hwy 179 and School Rd",,Jamestown,MO,"65046",,
"29003715000",1134005,Point,"37.44788",-91.671857,NAD83,"345 COUNTY ROAD 6670",,Salem,MO,"65560",,
"29004052001",1134071,Point,"37.56478",-90.298503,NAD83,"130 BUFORD BLVD","FREDERICKTOWN, MO",Fredericktown,MO,"63645",,
"21000056001",1139524,Point,"39.058611",-84.618056,NAD83,"2999 AMSTERDAM RD",,Erlanger,KY,"41017",,
"21000093001",1139558,Point,"38.3579",-85.1888,NAD83,PLANTSIDE DR HWY 55 S,,Eminence,KY,"40019",,
"21000203001",1139634,Point,"37.4636",-84.5024,NAD83,"544 CEDAR ST",,Crab Orchard,KY,"40419",,
"23000011001",1142442,Point,"44.0756",-70.2044,NAD83,"535 LINCOLN ST","103 WILLOW STREET",Lewiston,ME,"04240",,
"23000048001",1142483,Point,"45.3749",-68.5072,NAD83,"56 Haynes St",,Lincoln,ME,"04457",,
"23000089001",1142528,Point,"43.832413",-70.101522,NAD83,"43 S FREEPORT RD",,Freeport,ME,"04032",,
"23000101001",1142540,Point,"44.720515",-69.793267,NAD83,"33 WILLOW ST",,Norridgewock,ME,"04957",,
"32000020003",1144659,Point,"39.38",-119.2705,NAD83,"1900 Eureka St.",,Silver Springs,NV,"89429",,
"31001461001",1145954,Point,"40.6659",-96.0239,NAD83,RR St,,Dunbar,NE,"68346",,
"31001467001",1145957,Point,"40.725",-96.1167,NAD83,Jct 6th & Pine Sts,,Otoe,NE,"68417",,
"31002185001",1146040,Point,"41.8378",-103.6067,NAD83,"3702 REBECCA WINTER ROAD",,Scottsbluff,NE,"69361",,
"27001503001",1148216,Point,"45.90065435",-95.89602302,NAD83,SEC 7 T128N R41W,,Barrett,MN,"56311-0155",,
"27002201001",1148259,Point,"46.9875",-94.2039,NAD83,"248 POND LN",,Longville,MN,"56655",,
"27002601001",1148263,Point,"47.3935",-93.0732,NAD83,"314 TACONITE AVE EAST",SEC 25 T57N R22W,Keewatin,MN,"55753",,
"27003704001",1148304,Point,"45.1262462",-96.28778801,NAD83,PO Box 356,,Bellingham,MN,"56212",,
"27005103001",1148325,Point,"44.1524",-94.4791,NAD83,SEC 18 T108N R30W,,Hanska,MN,"56041",,
"27005119001",1148329,Point,"46.1873",-92.9078,NAD83,"6400 CTY RD 144","T43N, R20W, SECT 19, PINE CTY",Finlayson,MN,"55735",,
"27005401001",1148337,Point,"43.73497151",-92.13969017,NAD83,"104 Main St",FILLMORE COUNTY,Fountain,MN,"55935",,
"27005702001",1148359,Point,"47.29514522",-91.27000569,NAD83,"7 DAVIS DRIVE",T56N R7W SEC 32 LAKE COUNTY,Silver Bay,MN,"55614",,
"27007411001",1148417,Point,"43.86250309",-93.04422774,NAD83,"10023 750TH ST",,Blooming Prairie,MN,"55917",,
"27009220001",1148467,Point,"44.7603",-94.9053,NAD83,"1280 GROVE AVENUE",T115N R34W SEC 23 RENVILLE CTY,Bird Island,MN,"55310",,
"38000011001",1151266,Point,"46.90154",-97.21076,NAD83,"702 1ST ST N",,Casselton,ND,"58012",,
"38000034001",1151287,Point,"46.904808",-102.028679,NAD83,"304 Fifth Street South",PO BOX V,Hebron,ND,"58638",,
"38000046001",1151299,Point,"48.63185",-103.18259,NAD83,"13 1st Ave E",,Wildrose,ND,"58795",,
"38000133001",1151380,Point,"48.44397",-101.71495,NAD83,"510 Main St N","510 Main St N",Carpio,ND,"58725",,
"38000195001",1151438,Point,"48.61673",-103.9374,NAD83,"1 MAIN ST",,Grenora,ND,"58845",,
"35001119001",1145135,Point,"35.6769",-106.3103,NAD83,"6515 Hoochaneetsa Blvd. ",,Cochiti Lake,NM,"87083",,
"31000245001",1145798,Point,"41.0067",-97.6067,NAD83,SOUTH SIDE OF LOGAN ST DRIVE,"1/2 BLOK W OF LOGAN STREET",Benedict,NE,"68316",,
"31000315001",1145806,Point,"40.8835",-97.7473,NAD83,"430 LINCOLN STREET",P.O. BOX 147,Bradshaw,NE,"68319",,
"31000695001",1145856,Point,"40.3238",-97.3061,NAD83,"724th Road",,Daykin,NE,"68338-0214",,
"31001175001",1145918,Point,"42.3092",-103.0417,NAD83,County Rd 69,,Hemingford,NE,"69348",,
"31001631001",1145971,Point,"41.8304",-103.6457,NAD83,"1025 ""P"" STREET","220530 E. U. ST, E. OF CITY LIMIT",Gering,NE,"69341",,
"31003006001",1146091,Point,"41.2526",-96.2647,NAD83,"2 RIVERSIDE LAKES",,Waterloo,NE,"68069",,
"27000170001",1148035,Point,"47.49079769",-92.46137409,NAD83,"202 DAKOTA AVE E",T58N R17W SEC 23 ST LOUIS CTY,Gilbert,MN,"55741",,
"27000202001",1148064,Point,"48.7125",-94.6009,NAD83,SEC 35 T161N R31W,,Baudette,MN,"56623",,
"27000323001",1148146,Point,"44.6694",-93.6291,NAD83,"903 SYNDICATE ST",,Jordan,MN,"55352",,
"27007106001",1148396,Point,"46.4419",-92.7946,NAD83,"10 SEWER PLANT ROAD",SEC 30 R19W T46N,Moose Lake,MN,"55767",,
"27009117001",1148454,Point,"47.7785",-96.6374,NAD83,SEC 26 27 34 35 T150N R47W,,Crookston,MN,"56716",,
"27009226001",1148471,Point,"44.78397268",-95.34606595,NAD83,SEC 7 T115N R37W,"111 JACKSON AVE",Sacred Heart,MN,"56285",,
"27009806001",1148580,Point,"48.20411625",-97.11536513,NAD83,HWY 220 T115N R50W SECT 32,OAK PARK MARSHALL COUNTY,Oslo,MN,"56744",,
"38000136001",1151383,Point,"47.551333",-99.400283,NAD83,"123 4th Ave.",,Cathay,ND,"58422",,
"38000258001",1151498,Point,"48.078128",-99.265358,NAD83,"170 Main St E",,Minnewaukan,ND,"58351",,
"38000345001",1151581,Point,"46.337339",-96.621538,NAD83,"860 25th Ave North",,Wahpeton,ND,"58075",,
"38000357001",1151593,Point,"47.144583",-100.277033,NAD83,"211 MAIN ST",,Wing,ND,"58494",,
"37002302001",1153253,Point,"35.1849",-81.4526,NAD83,NCSR 2235 N OF GROVER,NULL,Grover,NC,"28073",,
"37006001002",1153508,Point,"35.068738",-80.872449,NAD83,US HWY 521,NULL,Pineville,NC,"28134",,
"37007813001",1153641,Point,"34.555462",-79.363667,NAD83,CHERRY ST,NULL,Rowland,NC,"28383",,
"30000087001",1159147,Point,"45.793",-111.1619,NAD83,"91 E. Central Ave",,Belgrade,MT,"59714",,
"30000103001",1159161,Point,"46.1316",-112.9003,NAD83,"800 South Main",,Anaconda,MT,"59711",,
"41000050111",1164311,Point,"43.758",-122.4916,NAD83,"47441 WESTOAK ROAD",,Westfir,OR,"97492",,
"41000143001",1164387,Point,"45.5578",-123.915,NAD83,"206 S 7TH STREET",,Garibaldi,OR,"97118",,
"47000625001",1166070,Point,"35.9408",-84.5358,NAD83,"504 Bullard Ford Rd",,Harriman,TN,"37748",,
"22000130001",1168176,Point,"30.7841",-89.8506,NAD83,"214 ARKANSAS ST.",,Bogalusa,LA,"70429",,
"22003129001",1168397,Point,"32.3861",-92.4225,NAD83,ON HIGHWAY 34,ON HIGHWAY 34,Eros,LA,"71238",,
"22003417001",1168581,Point,"30.803",-91.3807,NAD83,E OF US 61,WEST FELICIANA PARISH POLICE JURY,Saint Francisville,LA,"70775",,
"49000043001",1170398,Point,"39.2683",-111.6361,NAD83,"2000 N 100 E",,Manti,UT,"84642",,
"49000327001",1170650,Point,"41.2501",-112.2099,NAD83,"10000 WEST 900 SOUTH","10000 WEST 900 SOUTH",Ogden,UT,"84404",,
"40000073001",1172490,Point,"34.874226",-94.600437,NAD83,"103 E. AVENUE B",SESESES30T05NR26EIM,Heavener,OK,"74937",,
"40000172002",1172560,Point,"35.9638",-95.8923,NAD83,"116 WEST NEEDLES",NWSES11R17NR13EIM,Bixby,OK,"74008",,
"40000671001",1172817,Point,"36.7096",-95.6259,NAD83,"701 E. MODOC",NESWNWS29T26NR16EIM,Nowata,OK,"74048",,
"40000775001",1172862,Point,"35.2219",-96.6575,NAD83,"503 LEMON LANE",NWWSESES27T09NR06EIM,Seminole,OK,"74868",,
"06003019001",1175386,Point,"36.489558",-121.470165,NAD83,Short Rd,,Soledad,CA,"93960",,
"06009004001",1176034,Point,"33.367596",-117.258904,NAD83,"1425 South Alturas Rd",,Fallbrook,CA,"92028",,
"53000955001",1180875,Point,"46.9094",-117.0812,NAD83,"500 W MAIN ST",,Palouse,WA,"99161-0248",,
"53001211002",1180919,Point,"47.4899",-122.3619,NAD83,"12550 SHOREWOOD DR SW",,Burien,WA,"98146",,
"48000125001",1182813,Point,"35.4285",-100.8031,NAD83,"1300 FT S ST HWY 273",,Lefors,TX,"79054",,
"48000159001",1182840,Point,"33.9022",-100.8472,NAD83,"209 Broadway",,Roaring Springs,TX,"79256",,
"48001235001",1183014,Point,"28.330833",-98.105277,NAD83,N SIDE OF TIMON CREEK 500' ESE OF INTX OF HWY 59,,George West,TX,"78022",,
"48006027001",1183699,Point,"31.1881",-94.7814,NAD83,"1500' W OF XING OF WHITE OAK C",,Diboll,TX,"75941",,
"48006049001",1183712,Point,"31.041556",-95.119639,NAD83,ON COLETO RD ADJACENT TO KICKA,,Groveton,TX,"75845",,
"48006061001",1183718,Point,"31.942696",-94.231392,NAD83,,,Tenaha,TX,"75974",,
"48006157001",1183756,Point,"30.8185",-95.235194,NAD83,Rustling Wind St,,Pointblank,TX,"77364",,
"48007030001",1183810,Point,"29.3523",-94.9834,NAD83,"1300' S INTX WOODLAND",,La Marque,TX,"77568",,
"48007737001",1184246,Point,"29.8806",-95.6259,NAD83,"14310 SPENCER ROAD,HORSEPEN CK",,Houston,TX,"77057",,
"48007762001",1184258,Point,"29.7244",-95.6252,NAD83,"2000FT W SYNOTT RD AND HWY 6",,Houston,TX,"77002",,
"48008119001",1184436,Point,"29.5725",-98.6667,NAD83,"9331 Tyler Oaks",,Helotes,TX,"78023",,
"48009016001",1184478,Point,"31.7361",-99.9331,NAD83,P.O. Box 497,"700 Railroad Avenue",Ballinger,TX,"78621",,
"18001052001",1120245,Point,"38.278",-85.8319,NAD83,"30 W 9TH ST",,New Albany,IN,"47150",,
"18002100001",1120269,Point,"40.4831",-86.1172,NAD83,"1501 W MARKLAND AVE",,Kokomo,IN,"46901",,
"18002130001",1120272,Point,"38.7334",-85.3843,NAD83,"1213 W 1ST ST",,Madison,IN,"47250",,
"18004791001",1120413,Point,"38.9961",-85.6126,NAD83,"725 N GREENSBURG ST",,North Vernon,IN,"47265",,
"18004836001",1120421,Point,"38.8853",-87.1775,NAD83,"15726 N SR 67",SR 67 & INDIANA SOUTHERN RAILROAD,Sandborn,IN,"47578",,
"18005179001",1120467,Point,"38.5739",-86.6161,NAD83,"7780 W SR 56",,West Baden Springs,IN,"47469",,
"18005353001",1120486,Point,"40.0454",-85.1427,NAD83,"8707 W US Highway 36",,Modoc,IN,"47358",,
"19000228001",1123646,Point,"41.8106",-90.5422,NAD83,"CITY CLERK, CITY HALL",,De Witt,IA,"52742",,
"19000458001",1123850,Point,"43.4533",-96.4489,NAD83,UNKNOWN,INTERSECTION OF CHERRY AVE & IOWA 9,Larchwood,IA,"51241",,
"19000499001",1123890,Point,"41.1411",-92.9003,NAD83,"6057 115TH TRAIL",,Lovilia,IA,"50150",,
"22001310001",1168272,Point,"30.1872",-93.3052,NAD83,"3400 BAYOU D'INDE ROAD",CALCASIEU PARISH,Sulphur,LA,"70664",,
"22001465001",1168284,Point,"30.0958",-92.0029,NAD83,"416 RAILROAD AVENUE",,Youngsville,LA,"70592",,
"22003125001",1168393,Point,"30.4907",-91.5205,NAD83,LA HWY 77 & WHEELOCK DRIVE,,Maringouin,LA,"70757",,
"22003306001",1168508,Point,"30.6982",-91.7501,NAD83,BURTON STREET,TOWN OF MELVILLE,Melville,LA,"71353",,
"22003413001",1168577,Point,"32.9914",-91.3142,NAD83,"500 FEET WEST OF DOSS LOOP",VILLAGE OF KILBOURNE,Kilbourne,LA,"71253",,
"22003414001",1168578,Point,"32.8635",-91.3957,NAD83,W NORTH STREET,,Oak Grove,LA,"71263",,
"49000010001",1170367,Point,"41.6341",-111.8575,NAD83,"4400 South 1900 West","83 WEST MAIN",Hyrum,UT,"84319",,
"49000011001",1170368,Point,"40.6516",-111.2857,NAD83,"BOX 7, 178 NORTH MAIN","178 NORTH MAIN",Kamas,UT,"84036-0007",,
"49000151001",1170497,Point,"37.6928",-112.85,NAD83,"65 N. HWY 143",,Parowan,UT,"84761",,
"49000172001",1170517,Point,"41.6759",-111.8086,NAD83,"510 E 300 S.",,Millville,UT,"84326",,
"40000044001",1172466,Point,"33.8872",-97.9393,NAD83,"0.81 S of Apache St and Hwy 81",,Terral,OK,"73569",,
"40000080001",1172497,Point,"35.2995",-94.6203,NAD83,"131 S MAIN",SWSWSES13T09NR25EIM,Spiro,OK,"74959",,
"40000118001",1172531,Point,"35.6522",-97.209,NAD83,"1.1 mi SW of Luther and Hwy 66",,Luther,OK,"73054",,
"40000330001",1172622,Point,"36.0533",-98.5883,NAD83,E of Park St and Route N2480,,Canton,OK,"73724",,
"06003016001",1175384,Point,"34.612239",-120.203366,NAD83,"79 Industrial Way",,Buellton,CA,"93427",,
"06003028001",1175395,Point,"35.138319",-120.632821,NAD83,Frady Ln,,Pismo Beach,CA,"93449",,
"47001555001",1166234,Point,"35.8240",-86.0828,NAD83,"102 Tatum Street",,Woodbury,TN,"37190",,
"06005047001",1175567,Point,"35.888433",-119.267707,NAD83,N Church Rd,,Earlimart,CA,"93219",,
"06005108001",1175640,Point,"37.619602",-120.874586,NAD83,"6700 Leedom Rd",Charles St. and Leedom Rd.,Hughson,CA,"95326",,
"06005551001",1175825,Point,"38.731657",-120.847517,NAD83,"2300 Coolwater Creek Rd",,Placerville,CA,"95667",,
"46000034001",1179138,Point,"44.04533",-96.61132,NAD83,PO BOX 343,"1 MILE S OF CITY",Flandreau,SD,"57028",,
"46000052001",1179155,Point,"42.8872",-97.1758,NAD83,PO BOX 162,"1/2 MILE SOUTHWEST OF TOWN",Gayville,SD,"57031",,
"46000088001",1179188,Point,"43.4042",-97.9542,NAD83,"207 W MAIN ST","1 MILE EAST OF PARKSTON",Parkston,SD,"57366",,
"53000260001",1180774,Point,"48.5373",-121.7413,NAD83,LAGOON AVE & SR 20,,Concrete,WA,"98237",,
"53000935001",1180868,Point,"48.9253",-119.4391,NAD83,"1308 Ironwood 
Oroville, WA",,Oroville,WA,"98844",,
"53001565001",1180971,Point,"46.1743",-122.9128,NAD83,"1121 Westside Hwy",,Kelso,WA,"98626",,
"48001147001",1182950,Point,"26.3673",-98.8041,NAD83,"N BANK OF RIO GRANDE,0.5MI UPSTREAM OF FM 755",,Rio Grande City,TX,"78582",,
"48001210001",1182990,Point,"28.0612",-97.8622,NAD83,"1.25M NW STHWY 198 & FMR 1068",,Mathis,TX,"78368",,
"48001403001",1183075,Point,"29.5294",-96.0575,NAD83,"106 FITZGERALD STREET",,East Bernard,TX,"77435",,
"48002021001",1183119,Point,"32.7528",-99.8839,NAD83,"1314 Commercial Ave.",,Anson,TX,"79501",,
"48003033001",1183196,Point,"30.2492",-97.6747,NAD83,"1700 Sheldon Rd",,Austin,TX,"78767",,
"48003047001",1183211,Point,"32.2467",-97.7393,NAD83,"1509 NORTHEAST BIG BEND TRAIL",SOMERVELL COUNTY,Glen Rose,TX,"76043",,
"48003062001",1183220,Point,"30.1702",-96.3775,NAD83,"2005 OLD CHAPPELL HILL ROAD",,Brenham,TX,"77834-1059",,
"48003074001",1183225,Point,"32.064155",-98.340073,NAD83,.75MI SW INTX FM 219 & FM 1702,ERATH COUNTY,Dublin,TX,"76446",,
"48003165001",1183281,Point,"30.5703",-98.2908,NAD83,"22 Pinehurst",,Marble Falls,TX,"78654",,
"48004079001",1183390,Point,"33.4522",-96.7497,NAD83,"2300FT W STHWY 289, 1400FT N",,Gunter,TX,"75058",,
"48005023001",1183582,Point,"32.397669",-94.848006,NAD83,"1/4M E & 1/2M N. USHWY 259 AND FMR 2204",,Kilgore,TX,"75662-5605",,
"48005077001",1183626,Point,"32.416666",-94.704444,NAD83,,,Longview,TX,"75603",,
"48005119001",1183659,Point,"31.9975",-95.0889,NAD83,"1826 Hwy. 79",P.O. Box 38,New Summerfield,TX,"75780",,
"48007039012",1183827,Point,"29.84417",-95.27571,NAD83,"8219 KELLET ST",,Houston,TX,"77087",,
"48007058001",1183879,Point,"30.1171",-94.6295,NAD83,"1MI E OF FM 770 ON E PINE ST",LIBERTY COUNTY,Daisetta,TX,"77533",,
"48007083001",1183906,Point,"29.330322",-94.938198,NAD83,TX-6 E,,Hitchcock,TX,"77563",,
"48007170001",1183978,Point,"29.7856",-95.7081,NAD83,"19310 KATY FREEWAY",,Houston,TX,"77056",,
"48007185001",1183987,Point,"29.9935",-95.4037,NAD83,"3000 FT NE RICHEY RD IMPERIAL VALLY DR",,Houston,TX,"77002-6760",,
"48008186001",1184457,Point,"29.3202",-99.2913,NAD83,"518 Nester Ln",,D Hanis,TX,"78850",,
"48009044001",1184490,Point,"31.88722",-100.48891,NAD83,"101 WEST FIRST ST, 2500FT SW",COKE COUNTY,Robert Lee,TX,"76945",,
"51000137001",1192715,Point,"37.187534",-78.200412,NAD83,"100 S Agnew St",,Burkeville,VA,"23922",,
"51000176003",1192774,Point,"37.23054",-80.21187,NAD83,"5229 ENTERPRISE DR",,Elliston,VA,"24087",,
"51000206001",1192822,Point,"37.831402",-76.270039,NAD83,"152 MENHADEN RD",,Reedville,VA,"22539",,
"36006049001",1220972,Point,"43.9854",-75.9281,NAD83,"700 WILLIAM T. FIELD DRIVE",,Watertown,NY,"13601",,
"36006101001",1221018,Point,"44.451472",-75.686833,NAD83,MAIN STREET,,Hammond,NY,"13646",,
"36007006001",1221052,Point,"42.157889",-75.891722,NAD83,"1529 NY ROUTE 12",,Binghamton,NY,"13901",,
"36007169001",1221158,Point,"42.793389",-76.106222,NAD83,GROVE STREET,,Tully,NY,"13159",,
"36007175001",1221161,Point,"43.2873",-76.1466,NAD83,"VILLAGE PLACE, NYS RTE 49",,Central Square,NY,"13036",,
"36008030001",1221226,Point,"43.2167",-77.6667,NAD83,North Ave,,Rochester,NY,"14626",,
"42005074001",1227222,Point,"40.67259",-79.68566,NAD83,"414 MARKET ST",,Freeport,PA,"16229",,
"48001029001",1227759,Point,"31.2136",-101.9492,NAD83,Railroad Ave & Main St,,Rankin,TX,"79778-0061",,
"48005030001",1227875,Point,"32.3057",-94.5205,NAD83,"4000 FT SW ST HWY 43 AND ST HWY 149",,Tatum,TX,"75691",,
"55000810001",1229149,Point,"43.00359878",-88.98444357,NAD83,,WH SEC 6 T6N R13E,Cambridge,WI,"53523",,
"55003830001",1229219,Point,"43.538736",-89.44997,NAD83,"309 W WASHINGTON ST",,Portage,WI,"53901",,
"31003001001",1230274,Point,"40.8586",-97.9783,NAD83,"1205 SOUTH ""R"" ROAD",,Aurora,NE,"68818",,
"20000808001",1230909,Point,"39.8625",-95.2521,NAD83,"SE1/4 OF SEC 23, TOWNSHIP 2S,",RANGE 19E,Highland,KS,"66035",,
"20001013001",1230920,Point,"39.2184",-99.2837,NAD83,UNKNOWN,,Plainville,KS,"67663",,
"20001224001",1230932,Point,"39.6508",-99.5558,NAD83,"105 W Main St",P O Box 116,Logan,KS,"67646-0116",,
"36009018001",1232182,Point,"42.12714",-77.96484,NAD83,BOLIVAR ROAD (RTE 417W),,Wellsville,NY,"14895",,
"29002473001",1233261,Point,"37.482446",-94.287338,NAD83,West terminus of 19th St.,,Lamar,MO,"64759",,
"18000256001",1234177,Point,"41.4307",-85.0098,NAD83,"120 S BEST ST",PO BOX 96,Waterloo,IN,"46793",,
"18001814001",1234186,Point,"40.7552",-86.8828,NAD83,US 24 & CR 100 W,FRASER DITCH,Reynolds,IN,"47980",,
"47000460001",1235041,Point,"35.4169",-84.4897,NAD83,CHESTUEE & SECOND STREET,,Englewood,TN,"37329",,
"47000895001",1235056,Point,"35.4817",-86.0983,NAD83,"736 WEST HIGH STREET",,Manchester,TN,"37355",,
"55000180001",1229130,Point,"44.23727",-91.51195,NAD83,"1070 MIDDLE ROAD",,Arcadia,WI,"54612",,
"21000152001",1235493,Point,"38.631208",-84.61881,NAD83,"3300 STEWARTSVILLE ROAD",,Williamstown,KY,"41097",,
"21000287001",1235511,Point,"37.331667",-88.081389,NAD83,Pippi Hardin Blvd,,Marion,KY,"42064",,
"37009902001",1236405,Point,"36.2341",-80.8435,NAD83,NC Hwy 67,,Jonesville,NC,"28642",,
"06005033001",1238815,Point,"39.1697",-122.1536,NAD83,"700 B STREET",,Williams,CA,"95987",,
"53000640001",1238902,Point,"45.8616",-122.6719,NAD83,"101 ASPEN AVE PL",,La Center,WA,"98629",,
"01000104004",1239400,Point,"32.6237",-87.2963,NAD83,MOORE STREET EXTENTION,,Marion,AL,"36756",,
"12000053002",1239591,City,"28.02018",-82.13938,NAD83,,,Clarksville,FL,"33563",,
"12000111001",1239620,Point,"29.6268",-82.9688,NAD83,"114 North Main Street",,Trenton,FL,"32693",,
"20000477001",2919247,Point,"39.0556",-96.1688,NAD83,"215 Kansas",P O Box 278,Alma,KS,"66401",,
"56000450001",3005082,Point,"41.121885",-104.759821,NAD83,"4403 Livingston Ave",,Cheyenne,WY,"82007",,
"05000063001",3078731,Point,"36.2831",-92.4939,NAD83,"213 E Main St",,Gassville,AR,"72635",,
"40000679001",3090328,Point,"35.424105",-96.284652,NAD83,"502 WEST BROADWAY",SENWSES18T11NR10EIM,Okemah,OK,"74859",,
"34006040011",3107977,City,"39.78898903",-75.02973878,NAD83,,,Lake Hiawatha,NJ,"08021",,
"22009079032",3188930,Point,"31.3671",-92.3631,NAD83,E. HAMPTON DR.,RAPIDES PH SEWERAGE DIST #2,Pineville,LA,"71360",,
"29001148006",3213328,Point,"39.193893",-94.758882,NAD83,,,Kansas City,MO,"64152",,
"23000189001",3283848,Point,"44.280543",-69.008303,NAD83,,,Lincolnville,ME,"04849",,
"54003916003",3395730,Point,"39.5232",-79.8126,NAD83,P.O. BOX 397,,Reedsville,WV,"26547",,
"54004001001",3501970,Point,"38.42115",-81.848131,NAD83,Rt. 35,,Nitro,WV,"25143",,
"35200900003",3503600,Point,"35.2347",-106.6181,NAD83,"4324 Corrales Rd.",,Corrales,NM,"87048",,
"48008028005",3509619,Point,"29.43",-98.04,NAD83,"110 Highway 46",,New Braunfels,TX,"78131",,
"06028078001",3514416,Point,"33.679676",-117.873688,NAD83,"290 Paularino Ave",,Costa Mesa,CA,"92626",,
"48001765001",3516456,Point,"29.497361",-95.751514,NAD83,"550' W OF FM 2977",,Richmond,TX,"77469",,
"21000602001",3518998,Point,"37.4149",-86.9301,NAD83,"234 MILLER RD",,Beaver Dam,KY,"42320",,
"47001200001",3521696,Point,"36.0109",-83.0958,NAD83,Hwy 321,P.O. Box 300,Parrottsville,TN,"37843",,
"39004205001",3524317,Point,"41.6175",-81.3572,NAD83,"9301 CHILLICOTHE ROAD",,Willoughby,OH,"44094",,
"18120000004",3524859,Point,"40.9606",-85.5162,NAD83,"3229 W 915 N",APPROXIMATELY 5 MILES NORTH OF HUNTINGTON,Huntington,IN,"46750",,
"18120000048",3525136,Point,"41.4311",-87.2044,NAD83,"773 KETIL TRACE","S OF DIVISION RD, N OF CR 100S",Crown Point,IN,"46308",,
"18120000062",3531536,Point,"39.0342",-84.9875,NAD83,"8960 US HWY 50",APPROXIMATELY 5 MILES WEST OF AURORA,Aurora,IN,"47001",,
"24000030015",3534216,Point,"39.5345",-78.8736,NAD83,CONDA WAY EXTENDED,ALLEGANY,Rawlings,MD,"21557",,
"24000090037",3537616,Point,"38.7355",-76.8366,NAD83,"9821 SURRATTS ROAD",PRINCE GEORGE'S COUNTY,Cheltenham,MD,"20623",,
"40000562807",3539696,Point,"35.5513",-95.6557,NAD83,SW Corner of E1010 and N4135 Rd.,,Council Hill,OK,"74428",,
"40000648003",376940,Point,"34.4389",-97.1364,NAD83,"0.8 mi S of Hwy 77 and I-35, on Hwy 77",,Davis,OK,"73030",,
"12000120009",393503,Point,"28.861823",-81.912936,NAD83,"401 Rose Ave",,Fruitland Park,FL,"34731",,
"37002906001",393659,Point,"35.5054",-80.1035,NAD83,POBox 987,"17403 NCHwy 109 S",Denton,NC,"27239",,
"24000003025",1214150,Point,"38.9581",-76.4814,NAD83,"1 HARRY S. TRUMAN PARKWAY",ATTN: MR. RICHARD OLSEN,Annapolis,MD,"21401",,
"24000048015",1214293,Point,"39.364066",-77.410870,NAD83,"7499 Marcies Choice Ln","EAST OF RT 85, SOUTH FREDERICK",Frederick,MD,"21704",,
"24000061001",1214336,Point,"38.985",-76.3208,NAD83,"310 BATEAU DRIVE",QUEEN ANNE'S COUNTY,Stevensville,MD,"21666",,
"24000088001",1214403,Point,"38.0835",-75.583,NAD83,DUNN SWAMP ROAD,WORCESTER COUNTY,Pocomoke City,MD,"21851",,
"36003028002",1220383,Point,"41.5585",-73.915806,NAD83,FLEETWOOD DRIVE,,Wappingers Falls,NY,"12590",,
"36003148003",1220600,Point,"41.74329",-74.36346,NAD83,INSTITUTION RAOD,,Napanoch,NY,"12458",,
"36006113001",1221024,Point,"44.7055",-75.488,NAD83,RAILROAD ST & DENNY STREET,,Ogdensburg,NY,"13669",,
"36008002009",1221202,Point,"42.1206",-76.8077,NAD83,"1700 LAKE STREET",,Elmira,NY,"14901",,
"36008012001",1221209,Point,"43.0856",-77.9423,NAD83,"16 NORTH LAKE AVENUE",,Bergen,NY,"14416",,
"36009084001",1221430,Point,"42.7626",-78.6329,NAD83,"201 MILL STREET",,East Aurora,NY,"14052",,
"48001010001",1227758,Point,"31.9895",-106.6111,NAD83,"2000' W OF ST HWY 20, 4000' S OF FM 1905",,Anthony,TX,"79821",,
"55000410001",1229138,Point,"42.8582",-89.5234,NAD83,SUGAR STREET,,Belleville,WI,"53508",,
"55004310001",1229231,Point,"42.497",-88.7471,NAD83,SALT BOX ROAD,,Sharon,WI,"53585",,
"31000069001",1230167,Point,"42.8764",-98.6914,NAD83,EAST & GREIG STREET,PO BOX 218,Spencer,NE,"68777",,
"27001506001",1231519,Point,"45.82872023",-95.77672178,NAD83,"127 Main Avenue PO Box 227",,Hoffman,MN,"56339",,
"27003316001",1231526,Point,"43.6308",-96.113,NAD83,SEC 13 T102N R44W,,Magnolia,MN,"56158",,
"17000285002",1232708,Point,"38.965",-89.745,NAD83,LAGOON ROAD,,Livingston,IL,"62058-0506",,
"17000287002",1232709,Point,"38.7218",-89.6525,NAD83,,,Highland,IL,"62249",,
"29004088001",1233301,Point,"37.8706",-89.9451,NAD83,"1050 7TH STREET",,Saint Mary,MO,"63673",,
"29004138001",1233305,Point,"38.497554",-93.321751,NAD83,Friedly Road 0.15 miles East of Main,,Ionia,MO,"65335",,
"18003140001",1234192,Point,"40.5508",-84.8961,NAD83,"7611 N 450 E, N STANDARD BLVD",WARREN AVE & CR 450 E,Montpelier,IN,"47359",,
"37000904001",1236358,Point,"34.4844",-78.6496,NAD83,"408 E GREEN ST",NULL,Clarkton,NC,"28433",,
"40000443001",1236875,Point,"36.5664",-97.9856,NAD83,"0.1 E of Ash and Taylor",,Hillsdale,OK,"73743",,
"40000571001",1236882,Point,"35.6828",-96.8881,NAD83,"2002 S ROZELL",NWSESWS16T14NR04EIM,Chandler,OK,"74834",,
"40000717001",1236892,Point,"36.1094",-96.6992,NAD83,"209 N. MAIN ST.",SWSENES19T19NR06EIM,Yale,OK,"74085",,
"40000789002",1236899,Point,"36.714575",-101.442438,NAD83,"3M NE OF TOWN OFF HWY 54",NES21T03NR15EIM,Guymon,OK,"73942",,
"05000015001",1237643,Point,"33.591111",-92.83,NAD83,"101 OUACHITA 197",,Camden,AR,"71701",,
"05000726001",1237666,Point,"35.580378",-92.447358,NAD83,FACTORY ROAD,,Clinton,AR,"72031",,
"53000860001",1238905,Point,"48.1874",-117.0435,NAD83,"801 North Union",,Newport,WA,"99156",,
"36006029001",2813202,Point,"44.0728",-76.143,NAD83,VILLAGE ON CO RTE 179,,Chaumont,NY,"13622",,
"12000102003",2879381,Point,"30.1782",-81.7123,NAD83,"1601 Bartlett Ave",,Orange Park,FL,"32073",,
"20001903001",2919045,Point,"39.0713",-94.9133,NAD83,"148TH AND METROPOLITAN",RANGE 22E,Leavenworth,KS,"66048",,
"12000098002",2996488,Point,"28.0186",-80.6222,NAD83,"5240 BABCOCK ST., SUITE 300",,Palm Bay,FL,"32907",,
"20000469001",3085469,Point,"38.8614",-94.8694,NAD83,"14800 Lakeshore Drive",,Olathe,KS,"66061",,
"04002801005",3121869,Point,"33.588311",-111.974030,NAD83,,,Phoenix,AZ,"85032",,
"39008920011",3123494,Point,"40.9301",-81.1466,NAD83,"10955 JULIE AVE",,Alliance,OH,"44601",,
"39008920012",3123495,Point,"40.8999",-81.3842,NAD83,"2000 MOHLER DR",,North Canton,OH,"44720",,
"12000032001",3228468,Point,"28.5538",-81.4304,NAD83,"800 MERCY DR STE 4",,Orlando,FL,"32808",,
"55000290000",3382418,Point,"43.40997",-89.39559,NAD83,N4305 Interstate Highway 39 - 90 - 94,,Poynette,WI,"53955",,
"08209000087",3500239,Point,"40.236944",-104.983333,NAD83,,,Mead,CO,"80542",,
"53200802072",3507345,Point,"47.2646",-122.25,NAD83,"133 3RD AVE SE",,Pacific,WA,"98047-1399",,
"04000502002",3512377,Point,"35.5831",-112.0817,NAD83,"N of Tusayan on SR60, near Sth Rim of Grand Canyon",,Grand Canyon,AZ,"86023",,
"23000411001",3513468,Point,"44.313313",-69.777828,NAD83,"125 State Street",,Augusta,ME,"04330",,
"48002020001",3516976,Point,"26.2026",-98.2997,NAD83,"1M S. US EXP 83 ON GUADALUPE",,La Joya,TX,"78560",,
"54004007001",3516980,Point,"38.6295",-81.9726,NAD83,"3900 BUFFALO ROAD",,Buffalo,WV,"25033",,
"72000003020",3521484,Point,"18.216077",-67.133272,NAD83,"Bo. Miradero, PR-108 State Road",,Mayaguez,PR,"00682",,
"18120000039",3525116,Point,"41.105161",-85.743399,NAD83,"131 S Main St",,Pierceton,IN,"46562",,
"30300296001",3525400,Point,"44.7667",-111.1833,NAD83,"4 mi W of US 191 on NFS Rte 1791",,West Yellowstone,MT,"59758",,
"30300297001",3525416,Point,"45.7784",-111.2236,NAD83,"265 NORTH RIVER ROCK ROAD",,Belgrade,MT,"59714",,
"56000125201",3528496,Point,"41.298057",-106.141534,NAD83,"91 1st St",,Centennial,WY,"82055",,
"39004205002",3529456,Point,"41.6047",-81.3276,NAD83,"8779 EAGLE RD",,Willoughby,OH,"44094",,
"08201200058",3529656,Point,"38.72264",-104.72222,NAD83,"459 Willow Springs Rd",,Fountain,CO,"80817",,
"54000218001",3537959,Point,"39.4824",-77.9566,NAD83,"P.O. BOX 944, 65 DISTRICT WAY",,Martinsburg,WV,"25402",,
"21000019003",3540436,Point,"38.077778",-85.666667,NAD83,"12105 PRESTON HWY",,Hillview,KY,"40229",,
"39004102001",3308750,Point,"39.4765",-82.9157,NAD83,PO BOX 650,,Kingston,OH,"45644",,
"31001250001",3331811,Point,"41.0753",-98.705,NAD83,Highway 58 E,,Boelus,NE,"68820",,
"31001095001",3340309,Point,"40.0167",-101.9333,NAD83,Highway 34,,Haigler,NE,"69030",,
"31001634001",3343336,Point,"41.75",-103.4167,NAD83,Jct County Roads W & 35,,Mcgrew,NE,"69353",,
"39003907007",3394630,Point,"40.4149",-80.6698,NAD83,CO RD 45,,Steubenville,OH,"43952",,
"08209000029",3500180,Point,"39.4499",-105.412677,NAD83,"656 Wisp Creek Dr",,Bailey,CO,"80421",,
"08209000121",3500273,Point,"40.0024",-104.953,NAD83,,Suite 1300,Denver,CO,"80237",,
"29002831002",3502201,Point,"38.3136",-92.82328,NAD83,"28982 HARBOR ROAD",,Gravois Mills,MO,"65037",,
"19000820002",3502861,Point,"42.4022",-93.0742,NAD83,"CITY CLERK, CITY HALL",,Steamboat Rock,IA,"50672",,
"23000034002",3518176,Point,"44.394722",-68.087222,NAD83,"33 WATER ST","33 WATER STREET",Ellsworth,ME,"04605",,
"06008020003",3518636,Point,"33.821242",-117.509020,NAD83,"3997 Temescal Canyon Rd",,Corona,CA,"92883",,
"18120000018",3525042,Point,"41.4749",-85.4818,NAD83,S CR 900 N AND CR 15 W,,Albion,IN,"46784",,
"06004012500",3531736,Point,"34.1477",-118.1441,NAD83,"100 Garfield Ave. North",,Pasadena,CA,"91101",,
"48001018003",3538816,Point,"31.0697",-94.0394,NAD83,"2000' N INTX RECREATIONAL RD &",,Jasper,TX,"75951",,
"17005414002",3539556,Point,"38.0787",-89.3829,NAD83,"3814 AMBER RD",,Pinckneyville,IL,"62274",,
"35201200035",3540416,Point,"35.6269",-108.7905,NAD83,S La Bah Dr,,Yatahey,NM,"87375",,
"44060040002",3541756,City,"41.823917",-71.412324,NAD83,,,Art,RI,"02903",,
"12000101009",409166,Point,"26.9348",-82.2035,NAD83,"15005 Cattle Dock Point Road",,Port Charlotte,FL,"33981",,
"06001014001",433503,Point,"38.9752",-123.0994,NAD83,"13101 nokomis road",,Hopland,CA,"95449",,
"34006129011",442341,Point,"39.893159715",-75.08745886,NAD83,"20 ROAD C",,Audubon,NJ,"08106",,
"34006131011",442344,City,"39.87100795",-75.05265661,NAD83,,,Troy,NJ,"08007",,
"34008702011",442381,City,"40.656616468",-75.08230451,NAD83,,,Wonalancet,NJ,"08804-0098",,
"34006183011",442463,City,"39.802",-75.2573,NAD83,,,Middlesex,NJ,"08056",,
"34004029011",442475,Point,"39.36180970",-74.58213504,NAD83,"3515 Bargaintown Rd",,Egg Harbor Township,NJ,"08234",,
"34002503011",442499,City,"40.6851",-74.6383,NAD83,,CORNER OF PEPACK RD,East Hanover,NJ,"07931-0477",,
"34008233011",442551,City,"40.7579",-75.1327,NAD83,,,Green Village,NJ,"08865",,
"34001239011",442559,City,"40.95830921",-74.1555667,NAD83,,,Haddon Heights,NJ,"07506",,
"34003524011",442698,City,"39.7903",-74.1976,NAD83,,,Cedar Crest,NJ,"08758-8818",,
"34001380011",442753,City,"40.99381018",-74.29875915,NAD83,,,Scotch Plains,NJ,"07457",,
"34002508011",442761,City,"40.40262977",-74.6388691,NAD83,,,Sewell,NJ,"08553",,
"34003494011",442805,City,"39.69205943",-74.25012714,NAD83,,,Manchester Township,NJ,"08050",,
"34001448011",442822,City,"40.90576866",-74.21886602,NAD83,,,Wharton,NJ,"07512",,
"34005201011",444182,City,"39.3918",-75.2184,NAD83,,,Alpine,NJ,"08320",,
"34006110011",444251,City,"39.75596235",-75.07272918,NAD83,,,Aragon,NJ,"08080",,
"12000172008",484438,Point,"29.8562",-81.2918,NAD83,"860 W. 16TH STREET16TH STREET",AT MIZELL ROAD,Saint Augustine,FL,"32084",,
"54003011011",493267,Point,"39.605882",-79.955386,NAD83,"278 GREENBAG ROAD",,Morgantown,WV,"26501",,
"23000263001",500965,County,"44.549378",-68.402252,NAD83,,Suite 7,,ME,,"23009",Hancock
"08000020001",1066826,Point,"38.138281",-108.293154,NAD83,,,Norwood,CO,"81423",,
"08000134001",1066935,Point,"38.0353",-107.3064,NAD83,"1000 HOTCHKISS ST",,Lake City,CO,"81235",,
"08000190001",1066983,Point,"40.002053",-105.059351,NAD83,"750 E COUNTY LINE RD",,Lafayette,CO,"80026",,
"08000340001",1067127,Point,"40.113198",-104.937201,NAD83,"205 Buchanan Ave",,Firestone,CO,"80520",,
"04001342001",1069471,Point,"33.532953",-111.935921,NAD83,,,Paradise Valley,AZ,"85253",,
"09000800001",1071870,Point,"41.5134",-72.8279,NAD83,"226 EVANSVILLE AVENUE",,Meriden,CT,"06450",,
"34006284001",1073832,Point,"39.95842729",-75.01463761,NAD83,"432 W Park Ave",,Maple Shade,NJ,"08052",,
"12000073004",1078200,Point,"27.7628",-82.627,NAD83,"601 8th Avenue Southeast",,Saint Petersburg,FL,"33701",,
"39000012001",1080434,Point,"40.70704",-83.84305,NAD83,E. SIDE OF STATE ROUTE 235,SOUTH OF THE VILLAGE IN SECTIO,Alger,OH,"45812",,
"39000241001",1080663,Point,"40.2206",-84.4936,NAD83,"300 GRAND AVE",,Versailles,OH,"45380",,
"39000266001",1080682,Point,"39.9865",-84.551,NAD83,"19 WATER ST",,Arcanum,OH,"45304",,
"39001869001",1080965,Point,"41.1083",-84.2723,NAD83,CO RD E RTE 1,,Continental,OH,"45831",,
"39002163001",1080988,Point,"41.5682",-84.003,NAD83,"516 LOCUST ST",,Delta,OH,"43515",,
"39004466001",1081181,Point,"41.4377",-84.0088,NAD83,"231 S DAMASCUS ST",,Liberty Center,OH,"43532",,
"39005138001",1081262,Point,"39.6174",-84.2904,NAD83,"9139 DAYTON CINCINNATI PIKE",,Miamisburg,OH,"45342",,
"39005222001",1081271,Point,"41.3008",-82.5982,NAD83,RILEY ROAD,,Milan,OH,"44846",,
"51000238001",1192864,Point,"37.29322",-77.26249,NAD83,"226 Hummel Ross Rd",,Hopewell,VA,"23860",,
"51000279001",1192904,Point,"38.080536",-78.874625,NAD83,"930 ESSEX AVE",,Waynesboro,VA,"22980",,
"56000092001",1194842,Point,"43.9712",-107.9505,NAD83,"T47N,R92W",,Worland,WY,"82401",,
"42004077001",1196294,Point,"40.924",-77.0423,NAD83,"120 N 3RD ST",,Mifflinburg,PA,"17844-1134",,
"42004079001",1196295,Point,"40.363947",-78.798772,NAD83,"151 CROSS ST",,South Fork,PA,"15956",,
"42005050001",1196527,Point,"40.5202",-79.8436,NAD83,WASHINGTON AVE,,Oakmont,PA,"15139-0206",,
"55001441001",1206197,Point,"46.067917",-89.074194,NAD83,PHELPS STP,,Phelps,WI,"54554",,
"55002710001",1206375,Point,"44.7558201",-90.4588256,NAD83,"301 North Main St",,Loyal,WI,"54446",,
"55004000001",1206570,Point,"43.4436",-90.7591,NAD83,WEST SOUTH STREET,,Readstown,WI,"54652",,
"55004060001",1206579,Point,"45.6298",-89.4235,NAD83,"869 BOYCE DR",,Rhinelander,WI,"54501",,
"55009739001",1206939,Point,"45.8697",-90.4086,NAD83,N13935 Ridge Ave.,,Fifield,WI,"54524",,
"55009842001",1206974,Point,"44.1565",-88.875639,NAD83,"CO HWY H, TN OF WOLF RIVER",,Fremont,WI,"54940",,
"55009905001",1206994,Point,"43.5744",-88.9644,NAD83,W11276 County Hwy AA,,Fox Lake,WI,"53933",,
"24000090015",1214409,Point,"38.063737",-76.335411,NAD83,"11137 MD-5",ST. MARY'S COUNTY,Scotland,MD,"20687",,
"36001004001",1220241,Point,"40.858722",-73.641667,NAD83,"100 MORRIS AVENUE",,Glen Cove,NY,"11542",,
"36002001007",1220311,Point,"40.7057",-73.9844,NAD83,"63 FLUSHING AVE",,Brooklyn,NY,"11205",,
"36003046002",1220410,Point,"41.37052",-73.96515,NAD83,"303 MAIN STREET",,Highland Falls,NY,"10928",,
"36003102001",1220529,Point,"41.6878",-74.8246,NAD83,FLOWER AVE,,Kauneonga Lake,NY,"12749",,
"36003169005",1220634,Point,"40.9124",-73.7658,NAD83,"1 LE FEVRE LANE",,New Rochelle,NY,"10801",,
"36004017001",1220709,Point,"42.312528",-73.998111,NAD83,"LAKE MILLS RD, CR#41",,Cairo,NY,"12413",,
"36004101001",1220786,Point,"42.3607",-74.4727,NAD83,VAN AKEN ROAD,,Grand Gorge,NY,"12434",,
"36005033001",1220847,Point,"43.7835",-74.28525,NAD83,ROUTES 28 & 30,,Indian Lake,NY,"12842",,
"36005036001",1220850,Point,"43.2474",-73.8134,NAD83,PINE STREET EXTENSION,,Corinth,NY,"12822",,
"36007002001",1221048,Point,"42.0962",-75.9627,NAD83,"4480 OLD VESTAL ROAD",,Vestal,NY,"13850",,
"36008143001",1221298,Point,"42.833319",-77.879015,NAD83,"3479 RETSOF ROAD",,York,NY,"14592",,
"36009198001",1221489,Point,"42.3575",-78.8309,NAD83,YOUNGS ROAD,,Otto,NY,"14766",,
"48000131001",1227743,Point,"34.261036",-99.529944,NAD83,"2MI N-NE INTX FM 91 AND FM 924",,Chillicothe,TX,"79225",,
"48004234001",1227859,Point,"33.2464",-97.562,NAD83,"1300F E. FMR 51 1M AND US HWY 81",,Decatur,TX,"76234",,
"48005126001",1227892,Point,"33.1415",-95.9713,NAD83,"0.75MI SW N INTX ST HWY 50 AND FM 499",,Campbell,TX,"75422",,
"48005258001",1227895,Point,"31.4866",-94.9312,NAD83,"900' N OF US HWY 69 ON W SIDE OF RED BAYOU",,Wells,TX,"75976",,
"55003650001",1229214,Point,"43.7674",-89.5744,NAD83,one mile south on Fandrich St.  from County Rd. I,,Oxford,WI,"53952",,
"20000607001",1230889,Point,"39.5829",-97.3956,NAD83,"412 WASHINGTON STREET",,Clyde,KS,"66938",,
"20000748001",1230906,Point,"38.3994",-95.6078,NAD83,"210 PEARSON AVENUE",,Waverly,KS,"66871",,
"20001617001",1230953,Point,"37.2272",-96.9908,NAD83,"21ST & ANDREWS",,Winfield,KS,"67156",,
"27009301001",1231562,Point,"44.04111277",-92.97232146,NAD83,"13644 630TH STREET",T107N R18W SEC 27 CLAREMONT TW,Claremont,MN,"55924",,
"36003056001",1232111,Point,"41.49419",-74.00799,NAD83,"2 RENWICK STREET",,Newburgh,NY,"12550",,
"36008119001",1232174,Point,"43.094472",-78.064833,NAD83,"C/O TOWN HALL, PO BOX 9",,Byron,NY,"14422",,
"36009052001",1232185,Point,"42.094904",-79.24343,NAD83,"QUAINT RD, RD#1",,Jamestown,NY,"14702",,
"17001604001",1232729,Point,"39.3413",-90.2067,NAD83,BLUFF STREET,,Greenfield,IL,"62044",,
"21000292001",1235514,Point,"36.814444",-84.875556,NAD83,TWIN OAKS RD OFF HWY 90,,Monticello,KY,"42633",,
"37000702001",1236357,Point,"35.543680",-77.053127,NAD83,"101 N Market St",NULL,Washington,NC,"27889",,
"40000414001",1236873,Point,"35.4794",-98.9424,NAD83,"415 GARY BLVD.",W2NENES36T12NR17WIM,Clinton,OK,"73601",,
"40000540001",1236880,Point,"35.7934",-97.6749,NAD83,"S. of Town, S. Euclid Street",,Cashion,OK,"73016",,
"46000093001",1237157,Point,"45.4279",-98.4773,NAD83,"123 S. LINCOLN ST.","1 MILE SOUTH OF THE CITY",Aberdeen,SD,"57401",,
"22000005001",1237404,Point,"29.969882",-92.117076,NAD83,"1908 E. LAFAYETTE STREET",VERMILION PARISH,Abbeville,LA,"70510",,
"41000026001",1238042,Point,"45.1851",-122.8119,NAD83,"3607 SUNSET DRIVE",,Hubbard,OR,"97032",,
"24000300014",1238388,Point,"39.529",-77.3105,NAD83,"7 Council Dr",FREDERICK COUNTY,Woodsboro,MD,"21798",,
"54004602001",1239030,Point,"39.3531",-80.0523,NAD83,RT 50 W,,Grafton,WV,"26354",,
"17000639001",2810120,Point,"42.0122",-88.2708,NAD83,STATE ROUTE 31 & DANA DRIVE,,Elgin,IL,"60123",,
"48001124002",2844665,Point,"26.116194",-98.021083,NAD83,"0.2 M W & .6 M N OF CONFLUENCE",,Weslaco,TX,"78596",,
"01200100003",2868352,Point,"33.5937",-86.8619,NAD83,JEFFERSON COUNTY COMMISION,"3410 HAPPY HOLLOW LANE",Fultondale,AL,"35068",,
"12000258002",2923151,Point,"28.517",-81.7062,NAD83,"1 Westgate Plaza",,Clermont,FL,"34711-2875",,
"12000101006",398320,Point,"26.9842",-82.0346,NAD83,"25550 HARBOR VIEW RD, STE 1",,Port Charlotte,FL,"33980",,
"36001034001",409050,Point,"40.7493",-73.6407,NAD83,Elm Place,,Mineola,NY,"11501",,
"09000550002",435027,Point,"41.8024",-73.2231,NAD83,Woodridge Lake Sewer District,,Goshen,CT,"06757",,
"34008121012",442316,Point,"40.91231655",-74.85070434,NAD83,"292 ALPHANO RD",,Allamuchy,NJ,"07820-0385",,
"34002538011",442388,City,"40.5583",-74.7099,NAD83,,,Allendale,NJ,"08876",,
"34002066012",442643,City,"40.38775765",-74.08614003,NAD83,,,Northfield,NJ,"07748",,
"34002527011",442699,City,"40.3218",-74.0166,NAD83,,,Old Bridge,NJ,"07757",,
"34001379011",442750,City,"40.98472634",-74.11083549,NAD83,,,Saddle River,NJ,"07450",,
"19000691001",1124057,Point,"41.7653",-93.705,NAD83,LOCATED AT SE END OF E. BROADWAY,,Polk City,IA,"50226",,
"19001012001",1124291,Point,"42.6704",-91.9246,NAD83,"CITY CLERK, CITY HALL",,Oelwein,IA,"50662",,
"16000084001",1128634,Point,"46.2308",-116.4575,NAD83,"STATE HIGHWAY 95, ON NEZ PERCE RESERVATION",CRAIGMONT WWTP,Craigmont,ID,"83523",,
"16000170001",1128696,Point,"43.7067",-111.9912,NAD83,.52 mile SW of Int E600N & N3600E,,Menan,ID,"83434",,
"20000439001",1130261,Point,"39.33812",-95.7236,NAD83,"119 EAST MAIN STREET",,Mayetta,KS,"66509",,
"20000925001",1130437,Point,"38.38668",-96.17002,NAD83,"1 GAVIN ROAD",,Emporia,KS,"66801",,
"20001322001",1130591,Point,"37.9331",-99.3837,NAD83,"721 Marsh",P O Box 7,Kinsley,KS,"67547-0007",,
"20001416001",1130622,Point,"39.83075",-99.87224,NAD83,UNKNOWN,,Norton,KS,"67654",,
"20001613001",1130668,Point,"37.58833",-97.12248,NAD83,UNKNOWN,,Rose Hill,KS,"67133",,
"20002000001",1130687,Point,"38.44714",-95.06685,NAD83,C/O 4366 DOUGLAS ROAD,,Lane,KS,"66042",,
"29001024005",1133295,Point,"38.667944",-93.191361,NAD83,"26999 GOODWILL CHAPEL RD",,Sedalia,MO,"65301",,
"29001026001",1133297,Point,"37.1507",-93.3634,NAD83,"3301 SOUTH HIGHWAY FF",,Springfield,MO,"65801",,
"29001237023",1133590,Point,"39.017566",-92.341764,NAD83,,,Columbia,MO,"65202",,
"29001237041",1133607,Point,"38.971389",-92.396417,NAD83,,,Columbia,MO,"65201",,
"29002002001",1133622,Point,"40.2058",-95.0697,NAD83,"0.2 m East of Sundance Rd and N 2nd St",,Maitland,MO,"64466",,
"29002051001",1133658,Point,"39.07093",-92.94893,NAD83,River Road,,Nelson,MO,"65347",,
"29002087001",1133674,Point,"36.893279",-94.373303,NAD83,"2201 SCENIC ROAD",,Neosho,MO,"64850",,
"29002193001",1133724,Point,"38.765621",-93.416129,NAD83,Pleasant Green Road 0.01 miles N of Center St.,,La Monte,MO,"65337",,
"29003351001",1133946,Point,"40.006232",-93.985848,NAD83,NE of Hwy 13 and Hwy P intersection,,Jameson,MO,"64647",,
"29003436001",1133959,Point,"40.45225",-91.88332,NAD83,"21438 Luster St.",,Luray,MO,"63453",,
"29004037001",1134061,Point,"39.782778",-92.899194,NAD83,LOTUS ROAD,,Bucklin,MO,"64631",,
"29004037002",1134062,Point,"39.769675",-92.878068,NAD83,,,Bucklin,MO,"64631",,
"29004122001",1134132,Point,"37.7215",-91.1304,NAD83,HWY 32,,Viburnum,MO,"65566",,
"29004143001",1134157,Point,"38.789357",-92.803726,NAD83,,,Bunceton,MO,"65237",,
"21000029001",1139496,Point,"38.856667",-84.630833,NAD83,"240 STEPHENSON MILL RD",,Walton,KY,"41094",,
"21000086002",1139552,Point,"38.198529",-84.878225,NAD83,"301 W Main St",,Frankfort,KY,"40601",,
"21000187001",1139625,Point,"37.741",-83.5493,NAD83,"580 N WASHINGTON ST",,Campton,KY,"41301",,
"21000576001",1139859,Point,"38.55608",-83.57661,NAD83,"1553 COOPER DR",,Tollesboro,KY,"41189",,
"23000001003",1142427,Point,"43.5881",-70.2444,NAD83,"488 SPURWINK AVE",,Cape Elizabeth,ME,"04107",,
"23000122001",1142561,Point,"47.2847",-68.1233,NAD83,"826 MAIN ST",US RTE 1,Grand Isle,ME,"04746-0197",,
"72000004003",1144035,Point,"18.0141",-66.7843,NAD83,MUNOZ RIVERA STREET,,Guayanilla,PR,"00656",,
"72000005001",1144038,Point,"17.950162",-66.141225,NAD83,"PR 710, KM 1.0.",,Guayama,PR,"00784",,
"31000280001",1145803,Point,"40.3167",-98.5833,NAD83,Road Y,,Bladen,NE,"68928",,
"31000595001",1145845,Point,"40.3347",-96.4139,NAD83,"60869 725 Rd",,Crab Orchard,NE,"68332",,
"31000975001",1145894,Point,"40.9417",-96.9869,NAD83,"742 FRAIZER","E OF 2ND ST, NE OF TOWN",Garland,NE,"68360",,
"31003045001",1146129,Point,"41.3767",-95.9713,NAD83,"3900 PONCA ROAD",,Omaha,NE,"68112",,
"27000001012",1147882,Point,"44.7457",-92.8468,NAD83,"100 LEE ST. & FIRST STREET",PO BOX 153,Hastings,MN,"55033",,
"27000055001",1147944,Point,"44.0322",-91.6036,NAD83,"1400 SHIVES ROAD",T107N R7W SEC 36 WINONA COUNTY,Winona,MN,"55987",,
"27000145001",1148014,Point,"46.86823874",-96.31462383,NAD83,SEC 12 T139N R45W,,Hawley,MN,"56549",,
"27000196001",1148058,Point,"44.2173",-93.5568,NAD83,"1101 FARIBAULT STREET",T109N R23W SECT26 LESUEUR CTY,Waterville,MN,"56096",,
"27001605001",1148224,Point,"47.7501",-93.6414,NAD83,"SEC 27, T61N R26W",PINE TREE DRIVE,Bigfork,MN,"56628",,
"27006401001",1148380,Point,"43.8053963",-91.75012376,NAD83,"511 SOUTH FERRY STREET","SEC 17 SEC 18 T104N, R82",Rushford,MN,"55971",,
"27007104001",1148394,Point,"46.68123632",-92.89671248,NAD83,Highway 210,,Cromwell,MN,"55726",,
"27008902001",1148446,Point,"46.08333964",-94.49442623,NAD83,"630 EAST MINNESOTA AVE","T130N,R30W,SECT 7,MORRISON_CTY",Randall,MN,"56475",,
"27009614001",1148569,Point,"44.0759",-91.9489,NAD83,"25 North Main",COUNTY HWY 26,Altura,MN,"55910",,
"38000017001",1151271,Point,"47.10372",-97.2181,NAD83,"330 MAIN ST",,Arthur,ND,"58006",,
"38000139001",1151386,Point,"48.2671",-99.1842,NAD83,"NE NE S7, T155N, R66W",,Churchs Ferry,ND,"58325",,
"38000176001",1151421,Point,"48.213475",-97.796289,NAD83,"108 MAIN ST N",,Fordville,ND,"58231",,
"38000222001",1151462,Point,"47.30011",-98.73367,NAD83,"404 MAIN",,Kensal,ND,"58455",,
"38000230001",1151470,Point,"48.3100",-97.90128,NAD83,"310 MAIN ST",,Lankin,ND,"58250",,
"37000001001",1153087,Point,"35.9048",-82.333,NAD83,NCSR 1138,NULL,Burnsville,NC,"28714",,
"37002601001",1153296,Point,"35.0567",-78.8608,NAD83,"610 N Eastern Blvd.",NULL,Fayetteville,NC,"28301",,
"37003616001",1153377,Point,"35.3635",-81.1085,NAD83,"109 LOLA ST",NULL,Stanley,NC,"28164",,
"37006503001",1153560,Point,"34.0351",-77.8925,NAD83,"404 DOW RD",NULL,Carolina Beach,NC,"28428",,
"37009807001",1153816,Point,"35.6",-77.8092,NAD83,"7655 PEACOCK BRIDGE RD",NULL,Stantonsburg,NC,"27883",,
"30000118001",1159170,Point,"48.5674",-110.5412,NAD83,"1/2 Mile East of Hwy 432, NE of Town",,Rudyard,MT,"59540",,
"41000187001",1164419,Point,"44.9328",-124.0055,NAD83,"5000 SE PORT","5000 SE PORT",Lincoln City,OR,"97367",,
"41000249001",1164463,Point,"45.7537",-122.8605,NAD83,"34345 EAST COLUMBIA AVENUE",,Scappoose,OR,"97056",,
"41000277001",1164484,Point,"45.1342",-118.9314,NAD83,"3/4 MI E OF CITY",,Ukiah,OR,"97880",,
"47000075001",1165975,Point,"36.3172",-82.8277,NAD83,"60 BOULDER LOOP",,Greeneville,TN,"37745",,
"47000930002",1166134,Point,"35.8078",-88.7678,NAD83,P.O. 68,"167 Miller Drive",Jackson,TN,"38302-0068",,
"47009103001",1166289,Point,"36.4637",-83.5608,NAD83,"316 CEDAR FORK ROAD",,New Tazewell,TN,"37824",,
"22000050001",1168169,Point,"32.5232",-92.9224,NAD83,"321 TIE MILL ROAD",,Arcadia,LA,"71001",,
"22000285001",1168189,Point,"30.2161",-92.4031,NAD83,"412 CONRAD ROAD",,Crowley,LA,"70527",,
"22003226001",1168465,Point,"29.8046",-90.0142,NAD83,"126 SEWER PLANT ROAD",,Belle Chasse,LA,"70037",,
"40000015002",1172435,Point,"36.4414",-99.4877,NAD83,NE of Hwy 15 and Terra Dr.,,Woodward,OK,"73801",,
"40000307001",1172604,Point,"36.5671",-98.4552,NAD83,SE of Route N2550 and Cedar,,Carmen,OK,"73726",,
"40000508001",1172735,Point,"34.7131",-99.3756,NAD83,West of the intersection of E CR 159 and S CR 202,,Martha,OK,"73556",,
"40000613001",1172787,Point,"33.9919",-95.0933,NAD83,"111 N. DALTON",SENWNWS34T06R21EIM,Valliant,OK,"74764",,
"40000814001",1172885,Point,"36.5311",-95.9129,NAD83,"420 2ND ST.",SENESWS27T24NR13EIM,Ramona,OK,"74061",,
"06001010005",1175180,Point,"40.766290",-124.195290,NAD83,"4301 Hilfiker Ln",,Eureka,CA,"95501",,
"06002109001",1175348,Point,"37.6894",-121.8075,NAD83,"101 W. JACK LONDON BLVD.",,Livermore,CA,"94551",,
"06003038001",1175403,Point,"37.1539",-122.1649,NAD83,"701 Ocean Street", Room 410 ,Santa Cruz,CA,"95060",,
"06005249003",1175735,Point,"38.635863",-121.059294,NAD83,"1000 Blackstone Pkwy, El Dorado Hills, CA 95762",,El Dorado Hills,CA,"95762",,
"06006011001",1175864,Point,"37.8133",-118.9972,NAD83,Bald Mountain Road,,June Lake,CA,"93529",,
"46000030001",1179134,Point,"44.2311",-97.3131,NAD83,"218 CALUMET AVE; KINGSBURY CTY","SE 1/4, SEC 27, T111N, R56W",De Smet,SD,"57231",,
"46000399001",1179275,Point,"43.412",-98.4001,NAD83,PO BOX 7,ONE MILE SE OF THE CITY,Corsica,SD,"57328",,
"53000720001",1180838,Point,"47.0546",-123.2739,NAD83,"700 W MAPLE",,Mccleary,WA,"98557-0360",,
"53001040001",1180898,Point,"47.2188",-119.8528,NAD83,"16475 Road 9 NW",,Quincy,WA,"98848",,
"53002370001",1181059,Point,"48.0722",-117.7258,NAD83,"3963 Christensen Road",,Loon Lake,WA,"99148",,
"48001125001",1182927,Point,"27.496417",-99.487847,NAD83,BEWTEEN MARCELLA AVE. AND SPRINGFIELD AVE S,,Laredo,TX,"78041",,
"48003082001",1183233,Point,"31.444111",-98.582472,NAD83,"1600' N OF STHWY 16 & 2500' E","OF FM 3023, MILLS COUNTY",Goldthwaite,TX,"76844",,
"48003120001",1183264,Point,"30.6058",-97.2019,NAD83,"FMR 486, .5M S INTX US HWY 79 AND FM 486",,Thorndale,TX,"76577",,
"48007161001",1183970,Point,"29.9036",-95.3466,NAD83,"25714 STEEPLE CANYON RD",HARRIS COUNTY,Houston,TX,"77002",,
"48007165001",1183973,Point,"29.7574",-95.7141,NAD83,"N BANK MASON CRK, 2MI S IH 10",,Houston,TX,"77055",,
"48007852001",1184307,Point,"30.3585",-95.6008,NAD83,"8.5M W. STHWY 105 AND IH-45",,Montgomery,TX,"77358",,
"51000061001",1192650,Point,"38.748611",-78.631389,NAD83,"566 RED BANKS RD",,Mount Jackson,VA,"22842",,
"51000080004",1192669,Point,"37.191389",-80.519444,NAD83,"5277 PRICES FORK RD",,Blacksburg,VA,"24060",,
"51000171004",1192751,Point,"39.17912",-78.07576,NAD83,"3100 BERRYVILLE PIKE, WINCHEST",,Winchester,VA,"22603",,
"51000257013",1192883,Point,"38.21492",-78.90942,NAD83,"1998 KNIGHTLY MILL RD",,Fort Defiance,VA,"24437",,
"56000008002",1194779,Point,"41.127211",-104.707196,NAD83,"8911 Campstool Rd",,Cheyenne,WY,"82007",,
"56000019001",1194788,Point,"42.5376",-110.1039,NAD83,Sewage Lagoon Rd,,Big Piney,WY,"83113",,
"56000024001",1194792,Point,"41.2117",-106.4795,NAD83,"T14N,R84W",,Encampment,WY,"82325",,
"42000094002",1195428,Point,"39.8861",-75.2183,NAD83,"8200 ENTERPRISE AVE",,Philadelphia,PA,"19153",,
"42004004001",1196228,Point,"40.37668",-78.43161,NAD83,"131 MUNICIPAL ST",,Duncansville,PA,"16635",,
"55001460001",1206209,Point,"42.7866",-88.3962,NAD83,"2104 YOUNG ST",,East Troy,WI,"53120-0166",,
"55002120001",1206284,Point,"46.0078",-91.4872,NAD83,"16956 US HWY 63",,Hayward,WI,"54843",,
"55002210001",1206297,Point,"44.338",-88.643,NAD83,"521 W CEDAR STREET",,Hortonville,WI,"54944-0268",,
"55003190001",1206454,Point,"46.4313",-90.2307,NAD83,"1 Plant Street",,Montreal,WI,"54550",,
"55004420001",1206632,Point,"45.1923",-87.1211,NAD83,MAPLE DR & TWN LINE RD,,Sister Bay,WI,"54234",,
"55009582001",1206881,Point,"43.52963574",-88.52448645,NAD83,ROCKVALE ROAD,ROCKVALE ROAD,Mayville,WI,"53050",,
"24000013006",1214181,Point,"39.5343",-76.347,NAD83,"241 S Main St",ATTN: MS. CHRISTINE BUCKLEY,Bel Air,MD,"21014",,
"24000041001",1214277,Point,"38.9648",-75.8847,NAD83,"23236 BELL STREET",CAROLINE COUNTY,Ridgely,MD,"21660",,
"24000066001",1214363,Point,"37.9823",-75.8593,NAD83,"106 7th St",SOMERSET COUNTY,Crisfield,MD,"21817",,
"36003112001",1220545,Point,"41.7476",-74.7845,NAD83,COUNTY ROUTE 14,,Liberty,NY,"12754",,
"36003143002",1220589,Point,"42.035",-73.9433,NAD83,"234 HUDSON STREET",,Glasco,NY,"12432",,
"36005010004",1220823,Point,"44.696946",-73.631471,NAD83,"2097 Route 3",,Cadyville,NY,"12918",,
"36005055001",1220866,Point,"43.089674",-73.493419,NAD83,"6 ACADEMY STREET",,Greenwich,NY,"12834",,
"36005057001",1220868,Point,"43.5469",-73.4025,NAD83,RIVERSIDE DRIVE,,Whitehall,NY,"12887",,
"36005148001",1220921,Point,"43.21231",-74.18286,NAD83,PO BOX 479,,Northville,NY,"12134",,
"36006002001",1220932,Point,"43.093194",-74.767038,NAD83,VAN BUREN STREET,,Dolgeville,NY,"13329",,
"38000214001",1151455,Point,"48.541088",-97.642899,NAD83,"222 S 2ND ST",,Hoople,ND,"58243",,
"38000253001",1151493,Point,"46.899326",-99.307976,NAD83,"104 2nd Ave SW",,Medina,ND,"58467",,
"38000254001",1151494,Point,"46.9117",-103.5121,NAD83,"465 PACIFIC AVE",,Medora,ND,"58645",,
"37007602001",1153617,Point,"35.7329",-79.6535,NAD83,"724 LIBERTY ST",NULL,Ramseur,NC,"27316",,
"37007808001",1153638,Point,"34.882063",-78.999453,NAD83,LOOP RD,NULL,Parkton,NC,"28371",,
"37009501001",1153784,Point,"36.1409",-81.6698,NAD83,"86 Shoppes on the Parkway Rd",NULL,Blowing Rock,NC,"28605",,
"41000165001",1164406,Point,"43.5675",-119.0664,NAD83,South and East of Hotchkiss Lane,,Hines,OR,"97738",,
"22001015001",1168250,Point,"32.7465",-93.9762,NAD83,"9142 LA HWY 530 ON BELCHER RD.",,Oil City,LA,"71064",,
"22001070001",1168258,Point,"32.8918",-93.6918,NAD83,PERRIN ST,ON PERRIN ST,Plain Dealing,LA,"71064",,
"22003101001",1168362,Point,"30.6908",-92.2865,NAD83,"1081 HERITAGE MANOR ROAD",EVANGELINE,Ville Platte,LA,"70586",,
"22003223002",1168459,Point,"29.8524",-89.9078,NAD83,AT THE END OF E. PARK BLVD.,PLAQUEMINES PH GOVE,Braithwaite,LA,"70000",,
"22009051008",1168635,Point,"29.841667",-90.170833,NAD83,"1400 HIGHWAY 90 WEST",JEFFERSON PARISH,Westwego,LA,"70094",,
"49000024001",1170381,Point,"40.6183",-112.4428,NAD83,"429 East Main Street","630 NORTH RACE STREET",Grantsville,UT,"84029",,
"49000084001",1170435,Point,"40.5039",-111.9194,NAD83,"1253 JORDAN BASIN LANE",,Riverton,UT,"84065",,
"49000150001",1170496,Point,"41.14242",-111.80866,NAD83,"5455 W Old Hwy Rd","5455 WEST OLD HIGHWAY ROAD",Enterprise,UT,"84050",,
"40000088001",1172501,Point,"35.4151",-94.817,NAD83,PO BOX 525,S2NESES24T11NR23EIM,Sallisaw,OK,"74955",,
"40000096002",1172507,Point,"35.149266",-97.411023,NAD83,PO BOX 557,SENWSES21T08NR02WIM,Noble,OK,"73068",,
"40000110005",1172515,Point,"35.499",-97.2393,NAD83,"2500 N. CHOCTAW ROAD",NENESWS19T12NR01EIM,Choctaw,OK,"73020",,
"40000476001",1172712,Point,"36.6663",-97.7857,NAD83,"102 SOUTH 2ND",SWSWSWS07T25NR05WIM,Pond Creek,OK,"73766",,
"40000673001",1172819,Point,"36.905894",-95.811617,NAD83,S of Hwy 10 and E4040,,Wann,OK,"74083",,
"40000680001",1172822,Point,"35.5135",-96.5732,NAD83,W. of Third St and Oak,,Paden,OK,"74860",,
"40000681001",1172823,Point,"35.7347",-96.0645,NAD83,"108 N BROADWAY",SESWNWS32T15NR12EIM,Beggs,OK,"74421",,
"40000773001",1172860,Point,"34.9609",-96.7431,NAD83,"609 KHOURY LANE",SWNESES26T06NR01EIM,Konawa,OK,"74849",,
"06001054001",1175220,Point,"41.431755",-122.375035,NAD83,"1542 Alameda Weed, CA, 96094",,Weed,CA,"96094",,
"06002021001",1175279,Point,"38.0482",-122.1839,NAD83,END OF CANYON LAKE DRIVE,,Port Costa,CA,"94569",,
"06005162001",1175680,Point,"38.2023",-120.6889,NAD83,"675 GOLD OAK ROAD",,San Andreas,CA,"95249",,
"06008010001",1175959,Point,"34.026824",-117.598922,NAD83,"2662 E Walnut St",,Ontario,CA,"91761",,
"06009041001",1176079,Point,"33.1802",-117.371,NAD83,"1330 S. TAIT STREET",,Oceanside,CA,"92054",,
"46000292001",1179245,Point,"43.8342",-103.1818,NAD83,PO BOX 298,"600 FEET FROM SE CITY LIMIT BOUNDARY",Hermosa,SD,"57744",,
"53000213001",1180771,Point,"45.73",-122.7273,NAD83,"15100 NW MCCANN RD",,Vancouver,WA,"98685",,
"48003206001",1183288,Point,"31.9685",-96.9976,NAD83,"700F NE STHWY 171 AND FMR 1242",HILL COUNTY,Bynum,TX,"76631",,
"48004280001",1183498,Point,"33.1397",-96.9664,NAD83,,,Little Elm,TX,"75068",,
"48007521001",1184120,Point,"30.108",-95.4874,NAD83,"3.75MI NW OF INTX IH45 AND SPRING STUEBNER RD",,Houston,TX,"77056",,
"48007676001",1184207,Point,"29.7527",-95.4599,NAD83,"1300 POST OAK BLVD. SUITE 1400",,Houston,TX,"77056",,
"48007807001",1184280,Point,"30.0999",-95.183,NAD83,"2.5MI E OF USHWY 59",MONTGOMERY COUNTY,Houston,TX,"77002",,
"51000150001",1192724,Point,"37.130856",-76.837272,NAD83,"11463 ROLFE HWY",,Surry,VA,"23883",,
"51000183002",1192785,Point,"36.993505",-78.229925,NAD83,GROVE AVENUE,,Victoria,VA,"23974",,
"51000261001",1192887,Point,"36.757222",-83.010278,NAD83,RTE 633,,Pennington Gap,VA,"24277",,
"51000308002",1192944,Point,"37.084011",-76.531216,NAD83,"111 CITY FARM RD",,Newport News,VA,"23602",,
"56000003002",1194774,Point,"41.5671",-109.2748,NAD83,,,Rock Springs,WY,"82901",,
"56000020001",1194789,Point,"41.7545",-105.9633,NAD83,,,Rock River,WY,"82083",,
"42001020001",1195514,Point,"40.257",-75.8085,NAD83,ARMORCAST RD,,Birdsboro,PA,"19508",,
"42005033001",1196498,Point,"40.6241",-79.1546,NAD83,"1678 WAYNE AVENUE",,Indiana,PA,"15701",,
"55000275001",1206059,Point,"45.05488",-87.13727,NAD83,"2605 Summit Rd",,Baileys Harbor,WI,"54202",,
"55001360001",1206177,Point,"42.9607",-90.1142,NAD83,EAST SPRING ST,,Dodgeville,WI,"53533",,
"55001650001",1206237,Point,"45.6689",-91.2436,NAD83,"11045 W. 5th St.",,Exeland,WI,"54835",,
"55004660001",1206646,Point,"42.9107",-89.214,NAD83,"700 MANDT PARKWAY",,Stoughton,WI,"53589",,
"51000075001",1192661,Point,"37.263888",-76.016666,NAD83,,,Cape Charles,VA,"23310",,
"51000126001",1192705,Point,"36.791667",-81.686111,NAD83,PO BOX 5012,,Chilhowie,VA,"24319",,
"51000308003",1192945,Point,"37.214856",-76.635531,NAD83,"300 RON SPRINGS DRIVE",,Williamsburg,VA,"23185",,
"51001307001",1193016,Point,"38.2417",-78.3857,NAD83,"201 PROGRESS PL",,Ruckersville,VA,"22968",,
"56000016001",1194785,Point,"44.0855",-104.6228,NAD83,"W NE S2, T47N, R65W",,Upton,WY,"82730",,
"56000040001",1194804,Point,"44.2732",-107.9619,NAD83,"590 N Sherman Ave",,Manderson,WY,"82432",,
"56000077001",1194832,Point,"44.1471",-108.8628,NAD83,"SW NE S9, T48N, R100W",,Meeteetse,WY,"82433",,
"42000059001",1195396,Point,"40.2812",-75.5528,NAD83,"2990 FAGLEYSVILLE ROAD",,Gilbertsville,PA,"19525",,
"42001044001",1195537,Point,"40.8543",-75.2036,NAD83,"900 LOWER SOUTH MAIN ST",,Bangor,PA,"18013",,
"55001165001",1206157,Point,"46.8687",-91.0877,NAD83,SQUAW POINT ROAD,,Cornucopia,WI,"54827",,
"55001420001",1206193,Point,"44.61993",-91.97892,NAD83,,,Durand,WI,"54736",,
"55002170001",1206292,Point,"44.3831",-91.0158,NAD83,"145 E. Main St.",,Hixton,WI,"54635",,
"55003370001",1206482,Point,"43.954662",-88.079704,NAD83,"2110 Washington St",,New Holstein,WI,"53061",,
"55004930001",1206694,Point,"44.0679",-87.8904,NAD83,"340 ADAMS STREET",,Valders,WI,"54245",,
"55007541001",1206798,Point,"44.248880",-88.173695,NAD83,"478 Holland Ct",,Kaukauna,WI,"54130",,
"55009598001",1206886,Point,"44.90869",-87.26296,NAD83,"SEC. 18,T28N, R27E","SEC. 18,T28N, R27E",Sturgeon Bay,WI,"54235",,
"55009692001",1206927,Point,"44.983333",-90.159278,NAD83,"233045 Sanitary Road",SEQ NEQ SEC 20 T29N R3E,Johnson Creek,WI,"54411",,
"24000038001",1214274,Point,"38.6906",-75.768,NAD83,"125 KEARNEY STREET",CAROLINE COUNTY,Federalsburg,MD,"21632",,
"36003072004",1220481,Point,"41.3789",-73.7236,NAD83,NYS Route 6,,Mahopac,NY,"10541",,
"36003169007",1220636,Point,"41.1542",-73.8694,NAD83,"75 WESTERLY ROAD",,Ossining,NY,"10562",,
"36003194001",1220675,Point,"41.654537",-74.684910,NAD83,"38 PLANT DRIVE",,Monticello,NY,"12701",,
"36004063001",1220761,Point,"42.6659",-73.7384,NAD83,"35 ERIE BOULEVARD",,Albany,NY,"12204",,
"36006087001",1221000,Point,"43.07046",-75.61520,NAD83,"201 Fairway Ln",,Sherrill,NY,"13461",,
"36009149001",1221485,Point,"42.6023",-78.6528,NAD83,ROUTE 240,,Glenwood,NY,"14069",,
"36009173001",1221488,Point,"42.4764",-78.0969,NAD83,,,Fillmore,NY,"14735",,
"48005125001",1227891,Point,"33.1609",-95.1033,NAD83,"400' N OF IH 30 ACCESS RD AND 15",,Winfield,TX,"75493",,
"48008055001",1227939,Point,"29.6987",-96.536,NAD83,".2M N. IH10, WEST BANK OF THE","COLORADO RV, COLORADO COUNTY",Columbus,TX,"78934",,
"48008058001",1227940,Point,"29.584722",-96.336556,NAD83,,"CARTY AVE., 5 M NW I OF FM 102",Eagle Lake,TX,"77434",,
"55001290001",1229164,Point,"45.19",-92.3833,NAD83,South Line Rd,,Deer Park,WI,"54007",,
"55002260001",1229185,Point,"44.356",-91.4194,NAD83,"23510 CLEVELAND ST.",,Independence,WI,"54747",,
"55003350001",1229208,Point,"45.2",-91.533333,NAD83,"950 CTH AA",,New Auburn,WI,"54757",,
"31000126001",1230170,Point,"40.48",-95.7333,NAD83,Olive St,,Peru,NE,"68421",,
"20000610001",1230890,Point,"39.7764",-97.8876,NAD83,"403 MAIN STREET",,Courtland,KS,"66939",,
"20001222001",1230931,Point,"39.8014",-98.554,NAD83,"404 Main",P O Box 182,Lebanon,KS,"66952",,
"27003807001",1231535,Point,"44.33566054",-95.94746606,NAD83,"106 River Street Box 357",,Russell,MN,"56169",,
"36003201001",1232119,Point,"41.425667",-74.146639,NAD83,"1 WALT COLE BLVD",,Washingtonville,NY,"10992",,
"36006090001",1232143,Point,"42.941111",-75.392333,NAD83,STATE ROUTE 315,,Waterville,NY,"13480",,
"29004591001",1233311,Point,"37.705004",-92.650236,NAD83,"1727 Main St.",,Lebanon,MO,"65536",,
"18000602001",1234180,Point,"40.4012",-86.9113,NAD83,"1700 WABASH AVE",WABASH RIVER,Lafayette,IN,"47905",,
"51000257001",1235986,Point,"38.18637",-78.976271,NAD83,"828 LAUREL HILL ROAD, VERONA",,Verona,VA,"24482",,
"40000098001",1236862,Point,"35.296236",-97.485539,NAD83,"4000 S. I35 SERVICE RD.",SESENWS35T10NR03WIM,Norman,OK,"73160",,
"22003032001",1237415,Point,"30.9471",-92.106,NAD83,C.G. LOGAN LANE,,Evergreen,LA,"71333",,
"22003061001",1237418,Point,"32.6433",-93.0144,NAD83,"100 MARKET ST.",,Athens,LA,"71003-1003",,
"05000324001",1237654,Point,"35.064831",-93.381858,NAD83,"5TH ST",SEC-30 TWP-5N RNG-22W,Danville,AR,"72833",,
"54003601001",1239027,Point,"38.6449",-79.3294,NAD83,LEE DR,,Franklin,WV,"26807",,
"12000016008",1239571,Point,"30.3256",-81.6553,NAD83,"220 E BAY ST",,Jacksonville,FL,"32202",,
"12000017016",1239574,Point,"25.82115",-80.28465,NAD83,"201 Westward Dr",,Miami,FL,"33166",,
"12000018006",1239579,Point,"28.5382",-81.3789,NAD83,"400 S ORANGE AVE",,Orlando,FL,"32801",,
"12000092003",1239613,Point,"28.2476",-80.7362,NAD83,"2725 JUDGE FRAN JAMIESON WAY -",BLDG A,Melbourne,FL,"32940",,
"12000092006",1239616,Point,"28.2476",-80.7362,NAD83,"2725 JUDGE FRAN JAMIESON WAY -",BLDG A,Malabar,FL,"32940",,
"37003611004",2869469,Point,"35.4071",-81.1956,NAD83,STATE ST,NULL,High Shoals,NC,"28077",,
"34001187011",2885132,City,"40.8262",-73.9739,NAD83,,,Cranbury,NJ,"07020-0120",,
"20001644001",2919195,Point,"37.8157",-96.6254,NAD83,"205 W Central",,El Dorado,KS,"67042",,
"20000757001",3085534,Point,"38.6817",-95.5833,NAD83,"717 Topeka Ave",P O Box 226,Lyndon,KS,"66451-0226",,
"34001112005",3106590,Point,"41.0768",-74.387,NAD83,MACOPIN RD,,West Milford,NJ,"07480",,
"04002801001",3120214,Point,"33.5386",-112.1853,NAD83,,,Glendale,AZ,"85303",,
"04001315009",3166608,Point,"33.27",-111.7419,NAD83,"4400 South Greenfield Rd",,Gilbert,AZ,"85296",,
"54001592004",3211488,Point,"40.576",-80.6613,NAD83,"140 SAFETY DRIVE",,New Cumberland,WV,"26047",,
"19001104001",3213008,Point,"41.7026",-92.8416,NAD83,"12209 HWY 6 EAST",,Kellogg,IA,"50135",,
"33000132001",3237971,Point,"42.9506",-71.8728,NAD83,"7 Sawmill Road",,Greenfield,NH,"03047",,
"41000068001",1164330,Point,"42.2669",-122.8165,NAD83,,,Central Point,OR,"97502",,
"47000365001",1166031,Point,"35.2032",-86.0788,NAD83,"311 4TH AVE. S.",P.O. BOX 488,Franklin,TN,"37324",,
"47000760002",1166104,Point,"35.9175",-83.9874,NAD83,"1500 LYONS BEND ROAD",,Knoxville,TN,"37919",,
"47001375001",1166206,Point,"35.6767",-84.8549,NAD83,"1437 NEW LAKE ROAD",,Spring City,TN,"37381",,
"12000001045",1078117,Point,"26.070507",-80.234356,NAD83,"4150 SW 66th Ter",,Fort Lauderdale,FL,"33314",,
"12000076001",1078203,Point,"27.825902",-82.742198,NAD83,"7401 54th Avenue North",,Saint Petersburg,FL,"33709",,
"12000148002",1078305,Point,"28.245",-82.2456,NAD83,"34439 Eiland Boulevard",,Wesley Chapel,FL,"33544",,
"12000287001",1078400,Point,"28.2761",-81.4244,NAD83,"1616 S. John Young Parkway",,Kissimmee,FL,"34741-6371",,
"12000327001",1078420,Point,"30.707600",-86.109467,NAD83,"503 Hill St",,Defuniak Springs,FL,"32435",,
"39002919001",1081051,Point,"40.7229",-82.8131,NAD83,"6374 HOSFORD RD",,Galion,OH,"44833",,
"39004431001",1081179,Point,"39.8474",-84.5391,NAD83,TILLMAN LANE,,Lewisburg,OH,"45338",,
"39007973001",1081570,Point,"39.5992",-82.836,NAD83,W OF INTERSEC BAKER RD AND NAT,,Stoutsville,OH,"43154",,
"26000164001",1088401,Point,"43.9394",-83.2454,NAD83,"6330 KINDE RD",,Caseville,MI,"48725",,
"26000341002",1088479,Point,"43.2324",-86.2608,NAD83,"740 West Shoreline Dr.",,Muskegon,MI,"49441",,
"26000461001",1088521,Point,"43.013",-82.9285,NAD83,DEPART OF PUB WORKS CAPAC WWSL,"750 HILL ST",Capac,MI,"48104",,
"26000521001",1088574,Point,"42.485258",-82.893082,NAD83,"22301 BON BRAE ST","9 MILE LAKE-ST.CLAIR-9MILEDRAI",Saint Clair Shores,MI,"48080",,
"26000549001",1088588,Point,"42.7971",-83.6352,NAD83,"402 AIRPORT DRIVE",,Holly,MI,"48442",,
"26003122001",1088907,Point,"47.25",-88.5074,NAD83,"23749 HIGHWAY M-203",SOUTH OF FLORIDA LOCATION,Calumet,MI,"49913",,
"25000116001",1092410,Point,"42.3318",-71.1212,NAD83,,DEER ISLAND,Brookline,MA,"02446",,
"25000159001",1092440,Point,"42.640811",-72.499637,NAD83,,,Gill,MA,"01354",,
"25000178001",1092460,Point,"42.3",-71.6333,NAD83,"63 Main Street",,Northborough,MA,"01532",,
"25000179001",1092461,Point,"42.59606",-72.33146,NAD83,,ROUTE 2A,Orange,MA,"01364",,
"25000220001",1092505,Point,"42.0834",-71.3967,NAD83,Town Hall,,Franklin,MA,"02038",,
"54000106001",1094693,Point,"39.1762",-80.0579,NAD83,PO BOX 460,,Philippi,WV,"24416",,
"54002207001",1094949,Point,"38.2487",-82.1918,NAD83,STATE ROUTE 10,,Branchland,WV,"25506",,
"54002393003",1094964,Point,"37.8567",-81.9942,NAD83,"101 PEACH CREEK RD.",,Peach Creek,WV,"25639",,
"54002901001",1095041,Point,"37.6998",-82.2938,NAD83,P. O. BOX 98,,Naugatuck,WV,"25685",,
"54003009001",1095060,Point,"39.6556",-79.9922,NAD83,PO BOX 119,,Granville,WV,"26534",,
"54004302001",1095222,Point,"39.2029",-81.1651,NAD83,ROUTE 31 SOUTH,,Cairo,WV,"26337",,
"54005008001",1095280,Point,"38.3835",-82.5051,NAD83,"1640 BUENA VISTA DRIVE",,Huntington,WV,"25704",,
"33000009001",1100905,Point,"43.4422",-71.5895,NAD83,"257 Main Street",,Tilton,NH,"03276",,
"33000033001",1100929,Point,"43.69523",-72.297549,NAD83,PINE KNOLL DR,,Hanover,NH,"03755",,
"01000009002",1101836,Point,"34.2919",-86.4944,NAD83,ARAB SEWER BOARD,COUNTRY CLUB DRIVE,Arab,AL,"35016",,
"01000032001",1101860,Point,"34.2311",-85.6036,NAD83,BOUNDARY AVENUE,,Cedar Bluff,AL,"35959",,
"01000085003",1101919,Point,"34.586882",-86.563374,NAD83,"13331 MEMORIAL PARKWAY SOUTH",,Huntsville,AL,"35803",,
"01000115001",1101949,Point,"33.0007",-87.6422,NAD83,MOUNDVILLE TOWN OF,LAGOON AND LOCK RD 9,Moundville,AL,"35474",,
"01000201001",1102041,Point,"32.797797",-85.156501,NAD83,"7203 - 20TH AVENUE",,Valley,AL,"36854",,
"01000213001",1102051,Point,"31.0166",-87.516,NAD83,"369 EAST AVENUE",,Atmore,AL,"36504",,
"01000230001",1102061,Point,"31.5882",-86.2581,NAD83,TOWN OF BRANTLEY,GLENWOOD ROAD,Brantley,AL,"36009",,
"01000262001",1102092,Point,"31.0813",-87.0756,NAD83,CITY OF EAST BREWTON W AND SB,"815 WILLIAMSON ST",Brewton,AL,"36426",,
"01000335001",1102151,Point,"32.5761",-88.1836,NAD83,,,Livingston,AL,"35470",,
"05000008001",1104866,Point,"33.1734",-92.664,NAD83,"325 QUAIL CROSSING",,El Dorado,AR,"71730",,
"05000129001",1104962,Point,"34.265",-93.4758,NAD83,"106 NUT ROAD",,Amity,AR,"71921",,
"05000282003",1105109,Point,"33.6429",-93.6366,NAD83,"3307 HWY 67 W (2 MI W OF CITY)",,Hope,AR,"71801",,
"05000326001",1105149,Point,"36.2209",-92.6641,NAD83,"1385 MCCOOL 6001",,Yellville,AR,"72687",,
"05000354001",1105169,Point,"35.4126",-91.0293,NAD83,CROSS COUNTY ROAD NO. 110,,Hickory Ridge,AR,"72347",,
"05000443001",1105233,Point,"34.449",-92.1676,NAD83,"1 MILE EAST OF REDFIELD",,Redfield,AR,"72132",,
"05000759001",1105547,Point,"35.110694",-91.816167,NAD83,P.O. BOX 189,(SEC-25 TWP-6N RNG-8W),Mc Rae,AR,"72102",,
"13000130001",1109132,Point,"31.4871",-84.5092,NAD83,"222 HAND ST., P.O. BOX 148",,Leary,GA,"31762",,
"13000655001",1109473,Point,"33.9503",-84.7606,NAD83,"1231 Coppermine Connector",,Hiram,GA,"30141",,
"17000053001",1113341,Point,"40.3467",-90.3283,NAD83,PO BOX 409,,Ipava,IL,"61441",,
"17000391001",1113658,Point,"39.985",-89.2317,NAD83,US ROUTE 36,,Illiopolis,IL,"62539",,
"17000489002",1113762,Point,"41.9498",-87.9777,NAD83,"180 BROOKHURST LANE",,Wood Dale,IL,"60191",,
"17003917001",1114186,Point,"38.16307",-88.07305,NAD83,JACKSON STREET,,Crossville,IL,"62827",,
"17005107001",1114203,Point,"42.1585",-89.7361,NAD83,"317 NORTH STANTON STREET",,Shannon,IL,"61078-0514",,
"17005406001",1114225,Point,"39.807",-87.6686,NAD83,"700 EAST WASHINGTON",,Chrisman,IL,"61924",,
"17007131001",1114304,Point,"39.51583",-89.768413,NAD83,"115 CEMETERY ROAD",,Virden,IL,"62690",,
"17007403002",1114333,Point,"38.515",-88.0049,NAD83,"600 SOUTH MAIN","106 EAST SOUTH STREET",West Salem,IL,"62476",,
"17009504001",1114425,Point,"37.7033",-88.185,NAD83,"1/2 MILE SO OF RT 13 ON C H 8",,Shawneetown,IL,"62984",,
"18000050001",1120091,Point,"39.521111",-86.177222,NAD83,"500 W Harriman Ave",,Bargersville,IN,"46106",,
"18000827001",1120222,Point,"37.9238",-87.9093,NAD83,"410 OLD SR 69",,Mount Vernon,IN,"47620",,
"19000529001",1123918,Point,"42.0791",-90.6654,NAD83,"CITY CLERK, CITY HALL",,Maquoketa,IA,"52060",,
"19000567001",1123949,Point,"41.7553",-94.0446,NAD83,UNKNOWN,"1/2 MILE WEST OF TOWN, NORTH OF MINBURN RD",Minburn,IA,"50167",,
"19000718001",1124082,Point,"41.5761",-94.1969,NAD83,"1.7 miles east of Dexfield Rd. and 318th Ct. intersection","1.7 MILES E OF DEXFIELD RD & 318TH CT INTERSECTION",Redfield,IA,"50233",,
"19001024001",1124303,Point,"43.1476",-91.9297,NAD83,"0.2 MILES NE OF HWY 24 & 2ND ST INTERSECTION",,Fort Atkinson,IA,"52144",,
"19001073001",1124347,Point,"42.1556",-95.4314,NAD83,UNKNOWN,"OFF 6TH STREET, SOUTH OF TOWN",Schleswig,IA,"51461",,
"16000004001",1128549,Point,"42.6096",-114.4859,NAD83,"350 CANYON SPRINGS ROAD",,Twin Falls,ID,"83301",,
"16000192001",1128716,Point,"43.3061",-112.1623,NAD83,"195 yds W of N700E & 580 yds S of E800N",,Basalt,ID,"83218",,
"16000198001",1128722,Point,"42.8815",-115.8112,NAD83,"600 yds W of Bruneau on Highway 51",,Bruneau,ID,"83604",,
"20000102001",1130114,Point,"38.2327",-98.3082,NAD83,UNKNOWN,,Alden,KS,"67512",,
"20000746001",1130395,Point,"37.91746",-95.15678,NAD83,"C/O CRAID MILLER, OPERATOR",RANGE 20E,Moran,KS,"66755",,
"20001135002",1130524,Point,"38.7903",-97.6354,NAD83,"300 W Ash",P O Box 736,Salina,KS,"67402-0736",,
"20001136001",1130525,Point,"38.7043",-99.3297,NAD83,City Hall,,Schoenchen,KS,"67667",,
"20001151001",1130532,Point,"38.8006",-96.9546,NAD83,"1 S Broadway",P O Box 11,Woodbine,KS,"67492-0144",,
"20001211001",1130541,Point,"39.3269",-99.577,NAD83,"208 Main",P O Box 98,Damar,KS,"67632",,
"20001509001",1130630,Point,"37.0065",-95.6097,NAD83,"503 EAST COUNTY ROAD 1400",TOWNSHIP 35S RANGE 16E,Coffeyville,KS,"67337",,
"20001522001",1130640,Point,"37.6063",-96.0207,NAD83,SEC 18 TWNSHP 28S RNGE 13E,,Fall River,KS,"67047",,
"29001020001",1133269,Point,"37.932608",-91.727688,NAD83,"1801 HWY 72 EAST",,Rolla,MO,"65401",,
"29001088001",1133368,Point,"37.0045",-93.0966,NAD83,"227 NORTH STREET",,Sparta,MO,"65753",,
"29001159001",1133484,Point,"39.340278",-94.349972,NAD83,"2601 South Glenside",,Kearney,MO,"64060",,
"29001237007",1133575,Point,"39.017566",-92.341764,NAD83,,,Columbia,MO,"65202",,
"29002028001",1133644,Point,"39.29036",-93.96659,NAD83,"1217 HINES",,Richmond,MO,"64085",,
"29002413001",1133833,Point,"38.872001",-91.376496,NAD83,"0.1 mi S of Tree Farm Rd and Barbara Drive",,High Hill,MO,"63350",,
"29003549001",1133980,Point,"38.9407",-90.7468,NAD83,KEETEMAN ROAD,,Old Monroe,MO,"63369",,
"29003707001",1133996,Point,"40.252586",-93.592948,NAD83,"0.5 MILES NORTH OF 2ND ST. AND",COMMERCIAL STREET INTERSECTION,Spickard,MO,"64679",,
"29003866001",1134024,Point,"40.394166",-91.936615,NAD83,"520 WEST MADISON ST",,Wyaconda,MO,"63474",,
"21000271001",1139694,Point,"38.043333",-84.9225,NAD83,"1145 US HWY 127 BYPASS N",,Lawrenceburg,KY,"40342",,
"21000272001",1139695,Point,"38.5406",-84.8353,NAD83,"385 CARTER LN",FORMERLY: OWENTON STP,Owenton,KY,"40359",,
"21000280001",1139702,Point,"37.10638",-84.06683,NAD83,"236 LAGOON TRAIL","801 NORTH MAIN STREET",London,KY,"40741",,
"21000392001",1139780,Point,"36.908333",-88.525833,NAD83,"11105 ST RT 131",,Symsonia,KY,"42082",,
"23000003001",1142433,Point,"43.63888",-70.25646,NAD83,"111 WATERMAN DR","111 WATERMAN DRIVE",South Portland,ME,"04116-9422",,
"23000069002",1142506,Point,"43.548",-70.315806,NAD83,"415 BLACK POINT RD",,Scarborough,ME,"04074",,
"23000076001",1142514,Point,"44.5922",-70.2125,NAD83,"78 DAVIS CT",,Wilton,ME,"04294",,
"78000001007",1143872,Point,"18.3697",-64.9596,NAD83,BRASSVIEW ESTATES,,Virgin Islands,VI,"00802",,
"72000003005",1144030,Point,"18.248432",-67.155454,NAD83,STATE ROAD # 2,,Mayaguez,PR,"00708",,
"72000005003",1144040,Point,"18.113203",-66.158303,NAD83,PR ROAD # 171,,Cayey,PR,"00743",,
"35000103001",1145109,Point,"35.25671",-106.57223,NAD83,,,Sandia Park,NM,"87047",,
"31000040001",1145755,Point,"42.0903",-103.065,NAD83,Sarpy Rd,,Alliance,NE,"69301",,
"31002360001",1146054,Point,"40.0303",-98.0573,NAD83,S HARTLEY ST,,Superior,NE,"68978",,
"27000011001",1147904,Point,"45.0939",-93.3561,NAD83,"5200 - 85th Avenue North",,Minneapolis,MN,"55316",,
"27000114001",1147992,Point,"44.9715",-93.5126,NAD83,"600 Rice Street",,Wayzata,MN,"55391",,
"27000237001",1148093,Point,"45.7232",-93.1767,NAD83,"SEC 3,T37N,R23W",SOUTH ELMHURST,Braham,MN,"55006",,
"27000299001",1148130,Point,"45.39265874",-94.7012529,NAD83,"18578 COUNTY ROAD 33",T122N R32W SEC 3 STEARNS CTY,Paynesville,MN,"56362",,
"27000314001",1148138,Point,"45.7029",-94.2882,NAD83,"1020 Pond Rd NW","R31W, LANGOLA TWSP BENTON CTY",Rice,MN,"56367",,
"27000321001",1148144,Point,"44.7131",-93.4225,NAD83,"4646 Dakota Street Southeast",,Prior Lake,MN,"55372",,
"27005104001",1148326,Point,"44.10801616",-94.89109782,NAD83,"35560 CTY RD 17","T108N,R34W,SECT35,BROWN CTY",Comfrey,MN,"56019",,
"27005501001",1148342,Point,"43.75756034",-92.87577279,NAD83,"27745 State Hwy 56v",SEC 26 T103N R4W,Brownsville,MN,"55918",,
"27009403001",1148481,Point,"44.40355528",-93.05002052,NAD83,"SEC 24, T111N, R19W",RICE COUNTY 31,Dennison,MN,"55018",,
"27009502001",1148491,Point,"45.4578",-93.2235,NAD83,"100 ISANTI PKWY WEST",,Isanti,MN,"55040",,
"38000033001",1151286,Point,"48.0644",-100.9126,NAD83,"NW NE S23, T153N, R80W",,Velva,ND,"58790",,
"38000150001",1151396,Point,"48.393725",-101.0324,NAD83,"104 ELMER AVE",,Deering,ND,"58731",,
"38000201001",1151444,Point,"48.540127",-98.655731,NAD83,"301 3rd Ave South Apt 1",,Hampden,ND,"58338",,
"38000290001",1151530,Point,"48.302879",-97.703682,NAD83,"119 Clemet",,Pisek,ND,"58273",,
"37000704001",1153123,Point,"35.4767",-76.8144,NAD83,State Road 1743,,Bath,NC,"27808-0006",,
"37004203001",1153411,Point,"36.3196",-77.5872,NAD83,US Hwy 301 Business,,Halifax,NC,"27839",,
"37006202001",1153528,Point,"35.3487",-79.7929,NAD83,OFF NCSR 1556,NULL,Biscoe,NC,"27209",,
"37007807001",1153637,Point,"34.713",-79.3637,NAD83,NCSR 1109,NULL,Maxton,NC,"28364",,
"37007902001",1153664,Point,"36.323389",-79.658483,NAD83,"407 BROAD ST",NULL,Reidsville,NC,"27320",,
"37009203003",1153765,Point,"35.651341",-78.755234,NAD83,"4900 W LAKE RD",NULL,Apex,NC,"27539",,
"37009601001",1153786,Point,"35.3321",-77.9948,NAD83,"714 ARRINGTON BRIDGE RD",NULL,Goldsboro,NC,"27533",,
"13000197001",1109215,Point,"31.1675",-81.5032,NAD83,"2909 NEWCASTLE STREET",,Brunswick,GA,"31521",,
"13000222002",1109278,Point,"32.578624",-83.594865,NAD83,"250 Industrial Park Blvd",P.O. BOX 1488,Warner Robins,GA,"31099",,
"13000547001",1109346,Point,"30.8687",-84.2163,NAD83,"6th St SW",,Cairo,GA,"31728",,
"13000567001",1109366,Point,"34.605567",-83.798015,NAD83,"85 South Main Street",,Cleveland,GA,"30528",,
"13000626001",1109439,Point,"32.560356",-83.874072,NAD83,"506 Vienna St",,Fort Valley,GA,"31030",,
"13000804001",1109626,Point,"32.364608",-82.597781,NAD83,"1369 Sessions St.",,Soperton,GA,"30457",,
"17000251001",1113528,Point,"38.2917",-89.8233,NAD83,VILLAGE HALL,,Lenzburg,IL,"62255",,
"17000597001",1113876,Point,"39.1088",-88.5332,NAD83,INTERSECTION OF EICHE AVENUE,AND PEMBROKE STREET,Effingham,IL,"62401",,
"17000721008",1114000,Point,"41.6774",-88.0002,NAD83,"13 STEPHEN STREET",,Lemont,IL,"60439",,
"50000023001",1094074,Point,"45.004956",-72.108765,NAD83,,,Derby Line,VT,"05830",,
"12000000004",3606740,Point,"30.476676",-86.623764,NAD83,"250 Roberts Boulevard",,Fort Walton Beach,FL,"32547",,
"69000001003",3519636,Point,"15.223793","145.736196",NAD83,,,N. Mariana Islands,MP,"96950",,
"17000000010",3606786,City,"42.284127",-87.954576,NAD83,,,Saint Libory,IL,"60048",,
"17000110001",1113391,Point,"40.113278",-88.241611,NAD83,,,Champaign,IL,"61820",,
"36000000267",3606810,City,"42.224958",-73.496132,NAD83,,,Melville,NY,"12529",,
"22000000088",3606826,Point,"29.798943",-89.737701,NAD83,,,Saint Bernard,LA,"70085",,
"41000000019",3606867,City,"45.101633",-123.372345,NAD83,,,Rochester,OR,,,
"22000000097",3606835,Point,"29.729800",-92.883911,NAD83,,,Grand Chenier,LA,"70643",,
"36004041002",3482791,Point,"42.689886",-74.472387,NAD83,,,Cobleskill,NY,"12043",,
"22000000111",3606849,Point,"29.591968",-92.191772,NAD83,,,Kaplan,LA,"70548",,
"22000000118",3606856,Point,"29.520592",-89.692383,NAD83,,,Pointe A La Hache,LA,"70082",,
"36007221001",1221185,Point,"42.453050",-76.444943,NAD83,,,Dryden,NY,"13053",,
"17000515001",1113792,Point,"40.475888",-88.969674,NAD83,,,Bloomington,IL,"61701",,
"31000000013",3607337,City,"40.370220",-97.971096,NAD83,,,Broadwater,NE,"68935",,
"06023029001",3378890,City,"36.670622",-121.640625,NAD83,,,Salida,CA,,,
"40000721001",391765,Point,"34.927601",-95.733490,NAD83,OK-1 W,,Mcalester,OK,"74501",,
"29000000116",3607561,Point,"37.968388",-91.702361,NAD83,,,Rolla,MO,"65401",,
"29000000120",3607565,Point,"37.95906",-91.713048,NAD83,,,Rolla,MO,"65401",,
"13000000405",3607630,City,"34.299132",-83.826542,NAD83,,,Persia,GA,,,
"13000000408",3607633,City,"33.532237",-84.325562,NAD83,,,Saint Lucas,GA,,,
"13000000416",3607643,City,"32.464585",-84.991779,NAD83,,,Milo,GA,,,
"22000000166",3607659,County,"30.025408",-90.553436,NAD83,,,,LA,,"22095",St. John the Baptist
"38000007002",3282954,City,"48.13248",-103.641881,NAD83,,,Union Furnace,ND,"58802",,
"29000000146",3607682,Point,"40.47745",-93.9284,NAD83,East 172nd street Between state highway T &east 265th street,,Blythedale,MO,"64426",,
"22000000170",3607689,County,"30.480634",-90.118103,NAD83,,,,LA,,"22103",St. Tammany
"29000893010",3071911,Point,"38.5847",-92.1691,NAD83,,,Jefferson City,MO,"65101",,
"29004600001",1134175,Point,"39.163078",-94.324898,NAD83,,,Independence,MO,"64058",,
"37000000007",3607719,City,"36.095164",-79.437332,NAD83,,,Waverly,NC,"27215",,
"29000000162",3607727,City,"38.923847",-92.40346,NAD83,,,Boyd,MO,"65211",,
"29000000163",3607728,City,"36.640174",-93.212666,NAD83,,,Sumner,MO,"65616",,
"29000000165",3607730,City,"37.246381",-93.428918,NAD83,,,Lowgap,MO,"65802",,
"29000000167",3607732,City,"38.91373",-94.37505,NAD83,,,Bakersville,MO,"64063",,
"29000000174",3607739,City,"38.824691",-90.872464,NAD83,,,Parkton,MO,"63385",,
"29000000176",3607741,City,"38.84756",-91.948055,NAD83,,,Lakeside,MO,"65251",,
"29000000179",3607744,City,"37.17482",-94.56507,NAD83,,,Waveland,MO,"64834",,
"29000000181",3607746,City,"37.173946",-94.305904,NAD83,,,Webb,MO,"64836",,
"36000000345",3607747,Point,"41.246",-73.679,NAD83,,,Bedford Hills,NY,"10507",,
"36000000347",3607750,Point,"41.2585593",-73.6853263,NAD83,,,Bedford,NY,"10536",,
"29000000188",3607761,City,"38.650819",-92.127257,NAD83,,,Ryegate,MO,"65043",,
"29000000191",3607764,City,"39.147641",-94.587073,NAD83,,,Delco,MO,"64116",,
"29000000195",3607769,City,"38.725056",-94.469262,NAD83,,,Fontana Dam,MO,"64078",,
"29000000218",3607798,City,"39.016579",-94.19802,NAD83,,,Melstone,MO,"64029",,
"06008023005",2942682,Point,"33.639204",-117.923813,NAD83,,,Newport Beach,CA,"92603",,
"06008023006",2942689,Point,"33.674640",-117.886047,NAD83,,,Costa Mesa,CA,"92626",,
"29000000246",3607834,City,"39.348428",-94.774054,NAD83,,,Gibson,MO,"64079",,
"16000197001",1128721,City,"42.945833",-115.466111,NAD83,,,Bryant,ID,,,
"41000172001",1164410,City,"45.499910",-119.829855,NAD83,,,Olanta,OR,"97843",,
"06005239001",1175726,Point,"38.016452",-121.815376,NAD83,,,Antioch,CA,"94509",,
"16000042001",1128588,City,"47.775156",-117.011261,NAD83,,,Buckner,ID,,,
"29000000278",3607896,Point,"37.938056",-90.731361,NAD83,,,Cadet,MO,"63660",,
"29000000279",3607897,Point,"37.965419",-91.710001,NAD83,,,Rolla,MO,"65401",,
"08000000043",3607905,City,"40.1525",-103.185,NAD83,,,Hartly,CO,,,
"08000000049",3607919,Point,"37.267388",-105.897063,NAD83,"715 Ash St",,Sanford,CO,"81151",,
"08000000058",3607930,Point,"39.503611",-106.052222,NAD83,"1605 Airport Rd",,Breckenridge,CO,"80424",,
"29000000285",3607932,Point,"36.813314",-94.098653,NAD83,Palm Road,,Fairview,MO,"64842",,
"41000240001",1164454,Point,"44.265608",-121.169243,NAD83,"1134 SW Lake Rd",,Redmond,OR,"97756",,
"41000000033",3607940,Point,"44.276666",-121.132507,NAD83,E Antler Ave,,Redmond,OR,"97756",,
"41000000038",3608009,County,"43.735878",-117.078552,NAD83,,,,OR,,"41045",Malheur
"13000000443",3608012,City,"31.5777",-84.1525,NAD83,,,Keystone,GA,"31702",,
"16000047001",1128593,Point,"47.122447",-116.39447,NAD83,"65290 State Hwy 3",,Fernwood,ID,"83830",,
"36000000365",3608075,City,"42.8677284",-78.8656253,NAD83,,,Chenango Bridge,NY,,,
"19000000802",3608043,Point,"42.298834",-95.016289,NAD83,,,Lake View,IA,"51450",,
"16000193001",1128717,Point,"43.525464",-111.926479,NAD83,,,Idaho Falls,ID,"83401",,
"01000000123",3608095,Point,"32.194354",-86.419659,NAD83,"900 Tyson Rd",,Hope Hull,AL,"36043",,
"16000085401",458858,Point,"43.5827406",-116.3523928,NAD83,,,Meridian,ID,"83642",,
"19000000810",3608051,Point,"41.290867",-93.592615,NAD83,"118th Ave",,Indianola,IA,"50125",,
"13000000430",3607971,Point,"33.798496",-84.397289,NAD83,"1606 Loring Dr NW",,Atlanta,GA,"30309",,
"13000000431",3607972,Point,"33.768071",-84.423945,NAD83,"1122 North Ave NW",,Atlanta,GA,"30318",,
"13000000423",3607943,Point,"33.673497",-84.502029,NAD83,"3480 Meadowridge Dr SW",,Atlanta,GA,"30331",,
"06000000122",3608176,Point,"33.734762",-117.425909,NAD83,"13200 Shotgun Trail",,Corona,CA,"92883",,
"38000000024",3608303,County,"46.901492",-98.195801,NAD83,,,,ND,,"38003",Barnes
"19000000832",3608073,Point,"42.374525",-93.065143,NAD83,,,Eldora,IA,"50627",,
"38000000067",3608346,County,"46.4938",-102.3919,NAD83,,,,ND,,"38089",Stark
"38000000066",3608345,County,"46.2518",-103.2955,NAD83,,,,ND,,"38087",Slope
"38000000064",3608343,County,"47.3304",-100.1745,NAD83,,,,ND,,"38083",Sheridan
"38000000057",3608336,County,"48.0258",-100.0345,NAD83,,,,ND,,"38069",Pierce
"38000000053",3608332,County,"48.1338",-102.1927,NAD83,,,,ND,,"38061",Mountrail
"36006081001",1220994,Point,"43.15919892",-75.3351281,NAD83,,,Oriskany,NY,"13424",,
"36000000402",3608382,City,"42.159123",-79.593272,NAD83,,,Poughquag,NY,,,
"17000000049",3608431,City,"41.964678",-87.986618,NAD83,,,Mount Saint Francis,IL,"60191",,
"13000000447",3608432,City,"33.80692",-84.17046,NAD83,,,Desmet,GA,"30083",,
"08000000080",3608434,Point,"37.10528",-102.57,NAD83,"431 Oak Street",,Campo,CO,"81029",,
"08000000081",3608436,Point,"37.10528",-102.57,NAD83,"431 Oak Street",,Campo,CO,"81029",,
"22000000186",3608435,Point,"30.479082",-90.095633,NAD83,,,Covington,LA,"70433",,
"36000000412",3608438,Point,"41.208400",-73.574800,NAD83,,,Pound Ridge,NY,"10576",,
"53000000038",3608527,Point,"47.208669",-121.019699,NAD83,"3600 Suncadia Trail, 98922",,Cle Elum,WA,"98922",,
"08000000100",3608558,City,"40.57758",-104.734758,NAD83,,,New Castle,CO,"80610",,
"22000000190",3608576,Point,"30.114246",-90.910492,NAD83,"3106 LA-44",,Darrow,LA,"70725",,
"08000000114",3608600,Point,"38.19436703",-103.8561372,NAD83,"300 Main Street",,Crowley,CO,"81033",,
"41000021001",1164277,Point,"45.598183",-122.980957,NAD83,"925 S Main Street",,North Plains,OR,"97355",,
"41000022008",1164284,Point,"45.437487",-123.126526,NAD83,,,Gaston,OR,"97119",,
"08000000117",3608618,Point,"38.7508",-108.1022,NAD83,,,Delta,CO,"81416",,
"41000000090",3608629,County,"45.513078",-123.050995,NAD83,,,,OR,,"41005",Clackamas
"29000000068",3607441,Point,"37.607385",-92.670838,NAD83,"18000 Ostrich Road",,Lebanon,MO,"65536",,
"17000000024",3607455,Point,"42.362443",-88.843681,NAD83,"12211 State Route 76",,Poplar Grove,IL,"61065",,
"31000000023",3607471,Point,"40.919739",-96.501160,NAD83,"11080 N 162nd St",,Waverly,NE,"68462",,
"29000000080",3607479,Point,"37.30759",-91.410947,NAD83,"35224 Echo Bluff Drive",,Eminence,MO,"65466",,
"29000000089",3607490,Point,"39.362246",-92.431031,NAD83,"5201 South Morley Street",,Moberly,MO,"65270",,
"41000000029",3607498,City,"46.164019",-123.920803,NAD83,,,Schaefferstown,OR,,,
"29001110001",1133391,Point,"39.009001",-92.730287,NAD83,,,New Franklin,MO,"65274",,
"29002125001",1133702,Point,"39.255618",-93.968408,NAD83,,,Richmond,MO,"64085",,
"29001145001",1133426,Point,"39.14385",-94.44966,NAD83,,,Kansas City,MO,"64161",,
"29001151001",1133475,Point,"39.109961",-94.603425,NAD83,,,Kansas City,MO,"64105",,
"29004035003",3148048,Point,"37.834783",-92.198156,NAD83,,,Waynesville,MO,"65583",,
"19000000103",3608255,County,"42.396217",-94.636898,NAD83,,,,IA,,"19025",Calhoun
"48007033009",413590,Point,"29.805833",-94.921388,NAD83,"8808 NEEDLEPOINT RD",,Baytown,TX,"77521",,
"08000000201",3608812,Point,"40.236944",-104.983333,NAD83,,,Mead,CO,"80542",,
"08000000204",3608816,Point,"38.99351477",-104.5871057,NAD83,,,Peyton,CO,"80831",,
"06000000146",3608836,City,"37.4849159",-122.2273204,NAD83,,,Niwot,CA,"94063",,
"08000000228",3608938,Point,"37.370079016",-102.8597786,NAD83,"344 Randolph St",,Pritchett,CO,"81064",,
"36000000423",3608961,Point,"42.10935",-79.22833,NAD83,,,Jamestown,NY,"14701",,
"08201200105",3531336,Point,"38.15547",-107.75631,NAD83,"500 Otto St",,Ridgway,CO,"81432",,
"13000000479",3608966,Point,"34.250335",-83.468456,NAD83,"391 Pottery Rd",,Commerce,GA,"30529",,
"08000000241",3608962,Point,"40.608138",-105.07263,NAD83,"1525 Blue Spruce Drive",,Fort Collins,CO,"80524",,
"08000000242",3608967,Point,"40.6081633",-105.072680,NAD83,,,Fort Collins,CO,"80524",,
"45000000099",3608896,County,"32.881461",-79.985104,NAD83,,,,SC,,"45019",Charleston
"04002801010",3115108,City,"33.290360",-111.832581,NAD83,,,Gamaliel,AZ,,,
"04000000123",3608694,Point,"33.033780",-111.381454,NAD83,,,Florence,AZ,"85132",,
"06009014001",1176045,Point,"33.086782",-117.266248,NAD83,"1960 La Costa Ave",,Carlsbad,CA,"92009",,
"04002117003",401636,City,"33.034104",-111.383772,NAD83,,,Hiwasse,AZ,,,
"45000000107",3608904,County,"32.972092",-80.250664,NAD83,,,,SC,,"45035",Dorchester
"17000000078",3608969,Point,"42.196668",-88.093185,NAD83,,,Lake Zurich,IL,"60047",,
"45000000109",3608906,County,"34.379146",-81.092834,NAD83,,,,SC,,"45039",Fairfield
"45000000110",3608907,County,"34.192778",-79.767609,NAD83,,,,SC,,"45041",Florence
"45000000111",3608909,County,"33.393613",-79.322662,NAD83,,,,SC,,"45043",Georgetown
"45000000115",3608913,County,"33.844756",-79.025345,NAD83,,,,SC,,"45051",Horry
"36000000426",3608973,Point,"42.771659",-77.898302,NAD83,,,Leicester,NY,"14481",,
"27000000035",3608974,Watershed,"43.707594",-92.883053,NAD83,,,,MN,,,
"04000000128",3608977,Point,"33.3985",-112.6053,NAD83,,,Buckeye,AZ,"85326",,
"49000000007",3608981,City,"40.043432",-111.739071,NAD83,,,Ellsworth,UT,"84651",,
"13000000480",3608982,Point,"34.050099",-83.721313,NAD83,,,Winder,GA,"30680",,
"04002801024",439664,City,"34.583051",-112.330742,NAD83,,,Patterson,AZ,,,
"69000001040",3603473,Point,"14.178520","145.227242",NAD83,,,N. Mariana Islands,MP,"96951",,
"45000000121",3608919,County,"33.982157",-81.237545,NAD83,,,,SC,,"45063",Lexington
"45000000122",3608921,County,"34.178151",-79.400082,NAD83,,,,SC,,"45067",Marion
"45000000124",3608923,County,"33.911312",-82.295322,NAD83,,,,SC,,"45065",McCormick
"45000000125",3608924,County,"34.274666",-81.618977,NAD83,,,,SC,,"45071",Newberry
"45000000130",3608929,County,"34.006139",-81.772442,NAD83,,,,SC,,"45081",Saluda
"16000000056",3607945,City,"47.710224",-116.959763,NAD83,,,Clay City,ID,,,
"16000000059",3607948,City,"46.727426",-117.012935,NAD83,,,Cedarville,ID,"83844",,
"16000000058",3607947,City,"46.729978",-116.992035,NAD83,,,Cedarville,ID,,,
"17000000080",3609000,City,"38.591247",-89.911079,NAD83,,,Woodhull,IL,"62208",,
"08000000246",3609002,City,"39.5075",-106.3778,NAD83,,,Mount Dora,CO,"81649",,
"16000000061",3607950,City,"43.706725",-116.619530,NAD83,,,Casey,ID,,,
"06000000162",3609020,City,"33.844703",-118.386794,NAD83,,,New Castle,CA,"90277",,
"06000000161",3609019,Point,"33.844707",-118.386735,NAD83,"244 N Pacific Coast Hwy",,Redondo Beach,CA,"90277",,
"08209000155",3501037,Point,"40.934334536",-102.524029,NAD83,"29 Main Ave",,Sedgwick,CO,"80749",,
"29000000321",3609022,County,"36.640174",-93.212666,NAD83,,,,MO,,"29213",Taney
"06002035001",1175293,Point,"37.319595",-122.031326,NAD83,,,Cupertino,CA,"95014",,
"17000000082",3609023,City,"41.887933",-87.817883,NAD83,,,Columbia City,IL,"60305",,
"13000000482",3609027,City,"33.44536",-84.45516,NAD83,,,Pacific Junction,GA,"30214",,
"17000000083",3609029,City,"42.081598",-88.030615,NAD83,,,Dale,IL,,,
"06000000163",3609024,City,"37.625092",-122.413337,NAD83,,,Silt,CA,"94066",,
"06000000166",3609120,City,"32.767646",-117.022076,NAD83,,,Temple City,CA,,,
"06000000167",3609122,Point,"32.764759",-117.021904,NAD83,"4731 Date Ave",,La Mesa,CA,"91942",,
"08000000251",3609124,Point,"39.667389",-106.087222,NAD83,"26550 Blue River Pkwy",,Silverthorne,CO,"80498",,
"22000000198",3609126,City,"29.95150",-90.38049,NAD83,,,White Plains,LA,,,
"06008073001",1176019,Point,"33.8628356",-117.8278821,NAD83,"1717 E Miraloma Ave",,Placentia,CA,"92870",,
"04001316011",3507701,Point,"33.446912",-112.074966,NAD83,,,Phoenix,AZ,"85001",,
"08000350001",1067132,Point,"37.169810250",-104.503053,NAD83,"301 E Main St",,Trinidad,CO,"81082",,
"13000000484",3609139,City,"31.84653",-81.59491,NAD83,,,Ringsted,GA,"31313",,
"37004503001",1153438,Point,"35.319888",-82.495995,NAD83,,,Hendersonville,NC,"28739",,
"51070000009",3513920,Point,"36.90501016",-82.0693564,NAD83,"137 Highland Drive",,Lebanon,VA,"24266",,
"08000000257",3609154,City,"39.1461",-104.0778,NAD83,,,Orlando,CO,"80835",,
"08000000258",3609155,County,"39.1461",-104.0778,NAD83,,,,CO,,"08039",Elbert
"08000000263",3609164,Point,"38.23304126",-103.6626513,NAD83,"229 Colorado St",,Sugar City,CO,"81076",,
"08000000264",3609165,Point,"38.23307497",-103.6627907,NAD83,"223 Colorado St",,Sugar City,CO,"81076",,
"16000000072",3608087,Point,"43.667747",-116.329422,NAD83,N Ancell Ave,,Garden City,ID,"83714",,
"22000000200",3609166,State,"31.1801",-91.8749,NAD83,,,,LA,,,
"22000000199",3609158,State,"31.1801",-91.8749,NAD83,,,,LA,,,
"51001400057",3054529,Point,"36.94974722",-82.42777778,NAD83,"4822 Thomas Rd",,Coeburn,VA,"24230",,
"27000264001",1148112,Point,"45.2571091",-93.3351988,NAD83,,,Andover,MN,"55304",,
"51001400103",3358511,Point,"36.68706",-81.98219,NAD83,,,Abingdon,VA,"24211",,
"06000000175",3609168,City,"36.068805",-119.021416,NAD83,,,Log Lane Village,CA,,,
"45000000136",3609173,State,"33.8191",-80.9066,NAD83,,,,SC,,,
"54000000034",3609175,Watershed,"38.288050",-82.568092,NAD83,,,,WV,,,
"54000000039",3609180,Watershed,"38.123754",-80.672607,NAD83,,,,WV,,,
"13000000060",3606962,City,"33.091254",-82.014141,NAD83,,,Kuna,GA,,,
"08191000000",459461,Point,"37.948611",-107.873333,NAD83,"41 Society Dr",,Telluride,CO,"81435",,
"04000000135",3609209,Point,"35.191767",-111.636887,NAD83,,,Flagstaff,AZ,"86001",,
"08000000267",3609210,Point,"37.948611",-107.873333,NAD83,"41 Society Dr",,Telluride,CO,"81435",,
"34001082011",2843622,County,"40.7137677",-74.1350976,NAD83,,,,NJ,,"34013",Essex
"54000000049",3609190,Watershed,"38.904927",-81.805573,NAD83,,,,WV,,,
"54000000053",3609194,Watershed,"38.781922",-78.879089,NAD83,,,,WV,,,
"54000000060",3609201,Watershed,"38.030786",-81.276855,NAD83,,,,WV,,,
"54000000062",3609203,Watershed,"40.549287",-80.559998,NAD83,,,,WV,,,
"41000000091",3608680,County,"44.007136",-122.957611,NAD83,,,,OR,,"41039",Lane
"41000000101",3608691,County,"42.309792",-120.399170,NAD83,,,,OR,,"41037",Lake
"08201200008",3526636,Point,"39.622761460",-104.8905326,NAD83,"8390 E Crescent Pkwy",,Englewood,CO,"80111",,
"19000000032",3608184,County,"42.492693",-92.346905,NAD83,,,,IA,,"19013",Black Hawk
"19000000033",3608185,County,"42.349586",-96.075031,NAD83,,,,IA,,"19193",Woodbury
"19000000121",3608273,County,"40.756274",-93.318986,NAD83,,,,IA,,"19185",Wayne
"50000000018",3608747,Point,"43.064404",-73.153539,NAD83,"530 E Arlington Rd",,Arlington,VT,"05250",,
"06000000133",3608440,Point,"40.580845",-122.344437,NAD83,"1804 Shady Ln",,Redding,CA,"96002",,
"13000000072",3606974,City,"34.218367",-83.461289,NAD83,,,Minburn,GA,"30529",,
"04000000125",3608796,Point,"34.138946",-114.305899,NAD83,"12501 W End Agency Rd",,Parker,AZ,"85344",,
"06002016001",1175275,Point,"37.4849159",-122.2273204,NAD83,"1017 Middlefield Road",,Redwood City,CA,"94063",,
"41000213002",3538476,City,"45.683637",-121.399956,NAD83,,,Pleasant Mount,OR,,,
"06008045001",1175999,Point,"33.917562",-117.888730,NAD83,"1 Civic Center Cir",,Brea,CA,"92821",,
"36000000422",3608859,City,"43.118273",-79.0291,NAD83,,,Mendon,NY,,,
"41000000000",3507427,County,"42.132346",-121.944122,NAD83,,,,OR,,"41035",Klamath
"27000000037",3608980,Watershed,"45.569832",-93.438721,NAD83,,,,MN,,,
"13000000450",3608564,City,"33.65914",-84.01728,NAD83,,,Mingo,GA,"30012",,
"08000000243",3608984,Point,"38.710291291",-104.8253194,NAD83,"131 E Cherokee Dr",,Colorado Springs,CO,"80926",,
"54000000063",3609204,Watershed,"39.960280",-80.639648,NAD83,,,,WV,,,
"06000000178",3609216,City,"32.950487",-117.039413,NAD83,,,Manassa,CA,,,
"19000000147",3609217,City,"40.812749",-91.100928,NAD83,,,Silver Lake,IA,,,
"27007013001",1148386,Point,"47.18325806",-96.50973511,NAD83,,,Borup,MN,"56519",,
"51000001014",1235952,Point,"36.90498012",-82.06935644,NAD83,,,Lebanon,VA,"24266",,
"17000711004",1113984,Point,"41.982941",-88.079066,NAD83,,,Roselle,IL,"60172",,
"48000000109",3609163,Point,"30.12942",-97.571495,NAD83,"300 Water St",,Bastrop,TX,"78617",,
"08000000269",3609219,Point,"39.966667",-104.866667,NAD83,"14873 Hanover St",,Brighton,CO,"80602",,
"08000000270",3609223,Point,"37.187525",-104.493631,NAD83,,,Trinidad,CO,"81082",,
"41000000112",3609224,City,"44.850270",-122.951431,NAD83,,,Salford,OR,,,
"41000000113",3609225,County,"45.862276",-118.359833,NAD83,,,,OR,,"41063",Wallowa
"41000000114",3609226,County,"45.878526",-118.119507,NAD83,,,,OR,,"41059",Umatilla
"41000000117",3609230,County,"44.742821",-119.599915,NAD83,,,,OR,,"41023",Grant
"48000000111",3609229,Point,"26.320655",-98.7156,NAD83,,,Garciasville,TX,"78547",,
"41000259001",1164471,Point,"44.889019",-124.026203,NAD83,"7777 Oregon Coast Hwy",,Selma,OR,"97388",,
"17000574001",1113851,Point,"42.023281",-88.052673,NAD83,,,Schaumburg,IL,"60194",,
"08000000272",3609233,Point,"37.37357747",-102.4461761,NAD83,"202 Main St",,Vilas,CO,"81087",,
"08000000275",3609236,Point,"39.3027143",-102.743644,NAD83,,,Vona,CO,"80861",,
"55000000052",3609220,Point,"42.901276",-87.846851,NAD83,,,South Milwaukee,WI,"53172",,
"55000000013",3280623,City,"43.070393",-89.398499,NAD83,,,,WI,"53703",,
"08000000276",3609239,Point,"37.62391",-104.782852,NAD83,"524 S Albert Ave",,Walsenburg,CO,"81089",,
"55003100013",3522266,County,"43.022027",-87.899036,NAD83,,,,WI,,"55079",Milwaukee
"06000000179",3609238,City,"37.912784",-122.056732,NAD83,,,Marshall,CA,,,
"06012001032",2856163,City,"37.915493",-122.309074,NAD83,,,Ontario,CA,,,
"27007615001",1148429,Point,"46.08788172",-96.3931175,NAD83,,,Campbell,MN,"56522",,
"08000000279",3609245,Point,"38.153611",-102.719722,NAD83,"304 Main St",,Wiley,CO,"81092",,
"29000000323",3609247,County,"36.992027",-93.231723,NAD83,,,,MO,,"29043",Christian
"48000000113",3609250,Point,"33.078439",-97.463735,NAD83,"In City of NEW FAIRFIELD, APPROXIMATELY 5900 FEET NE OF THE INTERSECTION OF PIONEER RD & US HIGHWAY 81 287",,Rhome,TX,"76078",,
"17000111002",3528916,City,"40.117725",-88.197212,NAD83,,,Lake Station,IL,"61803",,
"48000000114",3609253,City,"33.113974",-97.456284,NAD83,,,East Thetford,TX,"76078",,
"08000000282",3609252,Point,"38.381589413",-105.151991,NAD83,,,Florence,CO,"81226",,
"55000000054",3609255,State,"44.2563",-89.6385,NAD83,,,,WI,,,
"17000157001",1113435,Point,"41.866492",-88.107605,NAD83,,,Wheaton,IL,"60189",,
"41000181001",1164415,Point,"44.879206",-123.134766,NAD83,"5098 Sawmill Rd S",,Salem,OR,"97302",,
"27003712001",1148305,Point,"44.77268849",-95.80804332,NAD83,"2574 Highway 59",,Clarkfield,MN,"56223",,
"56000000006",3609261,County,"41.051395",-107.649536,NAD83,,,,WY,,"56007",Carbon
"41000005001",1164260,Point,"45.441584",-122.531548,NAD83,"925 S Main Street",,Happy Valley,OR,"97355",,
"41000158001",1164401,Point,"46.199557",-123.949986,NAD83,"931 Pacific Dr",,Hammond,OR,"97121",,
"27000000119",3609112,County,"44.076734",-93.508415,NAD83,,,,MN,,"27161",Waseca
"27000000118",3609111,County,"46.438803",-95.135422,NAD83,,,,MN,,"27159",Wadena
"27000000117",3609110,County,"44.377122",-92.040710,NAD83,,,,MN,,"27157",Wabasha
"27000000113",3609106,County,"45.587014",-95.912704,NAD83,,,,MN,,"27149",Stevens
"27000000111",3609104,County,"45.556492",-94.224586,NAD83,,,,MN,,"27145",Stearns
"27000090001",1147971,Point,"44.92944",-93.5232381,NAD83,,,Shakopee,MN,"55379",,
"27000000104",3609097,County,"44.295350",-93.274612,NAD83,,,,MN,,"27131",Rice
"27000000102",3609095,County,"44.535797",-95.102119,NAD83,,,,MN,,"27127",Redwood
"27000000099",3609092,County,"45.648368",-95.381927,NAD83,,,,MN,,"27121",Pope
"27000000097",3609090,County,"43.998001",-96.314735,NAD83,,,,MN,,"27117",Pipestone
"27000000092",3609085,County,"47.298674",-96.512489,NAD83,,,,MN,,"27107",Norman
"56000000018",3609278,County,"41.771312",-104.819183,NAD83,,,,WY,,"56031",Platte
"56000000019",3609279,County,"44.907198",-109.134235,NAD83,,,,WY,,"56029",Park
"17000275001",1113549,Point,"38.728622",-89.956568,NAD83,,,Maryville,IL,"62062",,
"27007114001",1231549,Point,"43.85741712",-96.12209577,NAD83,"51 175th Ave",,Edgerton,MN,"56128",,
"06000000185",3609289,City,"34.419514",-119.698523,NAD83,,,Villa Grove,CA,"93101",,
"06000000186",3609295,City,"37.960982",-122.338600,NAD83,,,Two Buttes,CA,,,
"56000000023",3609300,County,"41.197773",-106.774063,NAD83,,,,WY,,"56007",Carbon
"08000000294",3609304,Point,"40.675059",-105.00047,NAD83,"6190 NE Frontage Rd",,Wellington,CO,"80549",,
"08000000295",3609305,Point,"40.675059",-105.00047,NAD83,"6190 NE Frontage Rd",,Wellington,CO,"80549",,
"13000000489",3609303,Point,"32.079884",-81.089830,NAD83,"23 Abercorn St",,Savannah,GA,"31401",,
"17000000087",3609306,City,"42.075034",-87.714500,NAD83,,,Montezuma,IL,"60091",,
"56000000025",3609308,County,"42.508046",-105.042343,NAD83,,,,WY,,"56031",Platte
"56000000029",3609313,County,"43.456906",-110.549927,NAD83,,,,WY,,"56039",Teton
"13000000490",3609310,Point,"31.982825",-81.232313,NAD83,,,Savannah,GA,"31419",,
"04000000137",3609314,Point,"32.489638",-114.775543,NAD83,,,San Luis,AZ,"85336",,
"04000000138",3609315,City,"32.490651",-114.772110,NAD83,,,Quitman,AZ,,,
"56000000030",3609316,County,"44.695017",-104.609756,NAD83,,,,WY,,"56011",Crook
"56000000032",3609318,County,"42.255459",-110.178452,NAD83,,,,WY,,"56023",Lincoln
"56000000034",3609320,County,"42.829653",-108.702164,NAD83,,,,WY,,"56013",Fremont
"17000491001",1113768,Point,"41.798959",-88.071127,NAD83,,,Lisle,IL,"60572",,
"27005901001",1148365,Point,"45.72918282",-93.69352423,NAD83,"500 School St",,Foreston,MN,"56330",,
"56000000040",3609328,County,"43.817684",-104.224548,NAD83,,,,WY,,"56045",Weston
"56000000041",3609330,County,"44.842238",-108.577881,NAD83,,,,WY,,"56003",Big Horn
"06000000188",3609335,City,"38.248427",-122.075958,NAD83,,,Paskenta,CA,,,
